id,type,shelter_id,name,shelter_type,sido,sigungu,address,lat,lon,area,category,facility_id,gu
shelter_185,Shelter,185,서울지방조달청 테니스장,옥외대피소,서울특별시,서초구,서울특별시 서초구 반포대로 217(반포동),37.499301,127.002453,1184.0,,,
shelter_186,Shelter,186,사우촌어린이공원,옥외대피소,서울특별시,관악구,서울특별시 관악구 신림동 1555-1,37.467563,126.934174,339.0,,,
shelter_187,Shelter,187,태양어린이공원,옥외대피소,서울특별시,관악구,서울특별시 관악구 신림동 1542-1,37.468497,126.936486,345.0,,,
shelter_188,Shelter,188,무궁화어린이공원,옥외대피소,서울특별시,관악구,서울특별시 관악구 신림동 645-1,37.469681,126.923566,660.0,,,
shelter_189,Shelter,189,누에소공원,옥외대피소,서울특별시,서초구,서울특별시 서초구 잠원동 160-3,37.50923,127.008449,1720.0,,,
shelter_190,Shelter,190,가락초등학교,옥외대피소,서울특별시,송파구,서울특별시 송파구 송파대로37길 45(가락동),37.499908,127.107791,2303.0,,,
shelter_191,Shelter,191,신라어린이공원,옥외대피소,서울특별시,관악구,서울특별시 관악구 신림동 744-1,37.473606,126.912582,514.0,,,
shelter_192,Shelter,192,한라어린이공원,옥외대피소,서울특별시,관악구,서울특별시 관악구 신림동 750-39,37.475677,126.914744,479.0,,,
shelter_193,Shelter,193,아름어린이공원,옥외대피소,서울특별시,성북구,서울특별시 성북구 길음동 1287-3,37.607553,127.015968,3735.0,,,
shelter_194,Shelter,194,잠원흥동소공원,옥외대피소,서울특별시,서초구,서울특별시 서초구 잠원동 162-1,37.507746,127.000426,2000.0,,,
shelter_195,Shelter,195,새싹어린이공원,옥외대피소,서울특별시,서초구,서울특별시 서초구 서초동 1686-10,37.497541,127.018272,840.0,,,
shelter_196,Shelter,196,훈련원공원,옥외대피소,서울특별시,중구,서울특별시 중구 을지로 227(을지로5가),37.56737,127.003892,13685.0,,,
shelter_197,Shelter,197,국립 서울농학교 운동장,옥외대피소,서울특별시,종로구,서울특별시 종로구 필운대로 103(신교동),37.584888,126.968651,500.0,,,
shelter_198,Shelter,198,은천어린이공원,옥외대피소,서울특별시,관악구,서울특별시 관악구 봉천동 635-309,37.488301,126.94302,443.0,,,
shelter_199,Shelter,199,효령어린이공원,옥외대피소,서울특별시,서초구,서울특별시 서초구 방배동 906-14,37.483163,126.997549,1432.0,,,
shelter_200,Shelter,200,우면수변공원,옥외대피소,서울특별시,서초구,서울특별시 서초구 우면동 749,37.45584,127.013599,21609.0,,,
shelter_201,Shelter,201,봉천어린이공원,옥외대피소,서울특별시,관악구,서울특별시 관악구 봉천동 1707-2,37.469262,126.964469,651.0,,,
shelter_202,Shelter,202,대협어린이공원,옥외대피소,서울특별시,관악구,서울특별시 관악구 신림동 746-32,37.474833,126.913376,391.0,,,
shelter_203,Shelter,203,장미어린이공원,옥외대피소,서울특별시,관악구,서울특별시 관악구 봉천동 148-103,37.479126,126.962395,423.0,,,
shelter_204,Shelter,204,청암중고등학교,옥외대피소,서울특별시,노원구,서울특별시 노원구 중계로 244(중계동),37.651345,127.073654,1280.0,,,
shelter_205,Shelter,205,고덕중학교 운동장,옥외대피소,서울특별시,강동구,서울특별시 강동구 동남로82길 94(고덕동),37.560198,127.161314,4000.0,,,
shelter_206,Shelter,206,장위3동 마을공원,옥외대피소,서울특별시,성북구,서울특별시 성북구 돌곶이로32길 39-8 (장위동),37.617002,127.053366,5331.0,,,
shelter_207,Shelter,207,간대어린이공원,옥외대피소,서울특별시,성북구,서울특별시 성북구 장월로33길 5-10 (장위동),37.618209,127.050662,6192.1,,,
shelter_208,Shelter,208,불암초등학교,옥외대피소,서울특별시,노원구,서울특별시 노원구 중계로 178(중계동),37.651,127.0804,11351.0,,,
shelter_209,Shelter,209,영신여자고등학교,옥외대피소,서울특별시,노원구,서울특별시 노원구 중계로16나길 13(중계동),37.6522,127.0829,14886.0,,,
shelter_210,Shelter,210,파리15구공원,옥외대피소,서울특별시,서초구,서울특별시 서초구 반포동 68-2,37.499517,126.999165,708.0,,,
shelter_211,Shelter,211,으뜸어린이공원,옥외대피소,서울특별시,관악구,서울특별시 관악구 봉천동 1731,37.478485,126.94104,3232.0,,,
shelter_212,Shelter,212,번남어린이공원,옥외대피소,서울특별시,강북구,서울특별시 강북구 오패산로77길 41(번동),37.635793,127.02493,1003.0,,,
shelter_213,Shelter,213,강북중학교운동장,옥외대피소,서울특별시,강북구,서울특별시 강북구 한천로150길 67(수유동),37.644769,127.025972,3312.0,,,
shelter_214,Shelter,214,솔밭(근린)공원,옥외대피소,서울특별시,강북구,서울특별시 강북구 삼양로 561(우이동),37.652119,127.012177,37911.0,,,
shelter_215,Shelter,215,번동중학교운동장,옥외대피소,서울특별시,강북구,서울특별시 강북구 오현로35길 87(번동),37.632117,127.036848,4356.0,,,
shelter_216,Shelter,216,중화고등학교운동장,옥외대피소,서울특별시,중랑구,서울특별시 중랑구 봉화산로27길 62(중화동),37.604472,127.082774,502.0,,,
shelter_217,Shelter,217,화계초등학교운동장,옥외대피소,서울특별시,강북구,서울특별시 강북구 솔매로50가길 25(미아동),37.623864,127.029156,2135.0,,,
shelter_218,Shelter,218,강북구견인차량보관소(우이동 교통광장),옥외대피소,서울특별시,강북구,서울특별시 강북구 우이동 산 99-2,37.663538,127.012734,2395.0,,,
shelter_219,Shelter,219,서울대학교 사범대학 부설 중학교 운동장,옥외대피소,서울특별시,성북구,서울특별시 성북구 월곡로 36(종암동),37.595804,127.038968,18452.0,,,
shelter_220,Shelter,220,서울대학교 사범대학 부설 고등학교 운동장,옥외대피소,서울특별시,성북구,서울특별시 성북구 월곡로 6(종암동),37.592727,127.037811,12736.0,,,
shelter_221,Shelter,221,올림픽공원,옥외대피소,서울특별시,송파구,서울특별시 송파구 올림픽로 424(방이동),37.521353,127.116061,37270.0,,,
shelter_222,Shelter,222,오금공원,옥외대피소,서울특별시,송파구,서울특별시 송파구 오금로 363(오금동),37.500811,127.131637,219167.0,,,
shelter_223,Shelter,223,중곡초등학교운동장,옥외대피소,서울특별시,중랑구,서울특별시 중랑구 면목로23길 20(면목동),37.574329,127.083592,4900.0,,,
shelter_224,Shelter,224,면남초등학교운동장,옥외대피소,서울특별시,중랑구,서울특별시 중랑구 면목로30나길 38(면목동),37.577507,127.087957,3515.0,,,
shelter_225,Shelter,225,상봉중학교운동장,옥외대피소,서울특별시,중랑구,서울특별시 중랑구 상봉중앙로8나길 28(상봉동),37.601147,127.0905,4404.0,,,
shelter_226,Shelter,226,신묵초등학교운동장,옥외대피소,서울특별시,중랑구,서울특별시 중랑구 묵동 246-12,37.607418,127.07548,6481.0,,,
shelter_227,Shelter,227,개운산 공원,옥외대피소,서울특별시,성북구,서울특별시 성북구 돈암동 산 6-23,37.596533,127.025277,6999.0,,,
shelter_228,Shelter,228,월곡인조잔디구장,옥외대피소,서울특별시,성북구,서울특별시 성북구 화랑로13길 144(하월곡동),37.608664,127.042328,17309.0,,,
shelter_229,Shelter,229,서경대학교 운동장,옥외대피소,서울특별시,성북구,서울특별시 성북구 서경로 124(정릉동),37.615409,127.012085,8650.0,,,
shelter_230,Shelter,230,중화초등학교운동장,옥외대피소,서울특별시,중랑구,서울특별시 중랑구 신내로7가길 22(신내동),37.602932,127.094908,4170.0,,,
shelter_231,Shelter,231,용마중학교운동장,옥외대피소,서울특별시,중랑구,서울특별시 중랑구 면목로28길 18(면목동),37.574051,127.085984,2702.0,,,
shelter_1,Shelter,1,배봉초등학교 운동장,옥외대피소,서울특별시,동대문구,서울특별시 동대문구 사가정로 193(전농동),37.579628,127.066661,3265.0,,,
shelter_2,Shelter,2,은석초등학교 운동장,옥외대피소,서울특별시,동대문구,서울특별시 동대문구 장안벚꽃로 201(장안동),37.578352,127.075227,2732.0,,,
shelter_3,Shelter,3,청량고등학교 운동장,옥외대피소,서울특별시,동대문구,서울특별시 동대문구 왕산로 303(청량리동),37.588642,127.050506,3772.0,,,
shelter_4,Shelter,4,덕수중학교 운동장,옥외대피소,서울특별시,중구,서울특별시 중구 마른내로9길 10(인현동2가),37.565066,126.997199,5685.0,,,
shelter_5,Shelter,5,신계초등학교 운동장,옥외대피소,서울특별시,노원구,서울특별시 노원구 초안산로 29(월계동),37.630028,127.053159,3470.0,,,
shelter_6,Shelter,6,해성여자고등학교 운동장,옥외대피소,서울특별시,동대문구,서울특별시 동대문구 전농로20길 31(전농동),37.581211,127.057273,5900.0,,,
shelter_7,Shelter,7,군자초등학교 운동장,옥외대피소,서울특별시,동대문구,서울특별시 동대문구 한천로6길 21(장안동),37.564099,127.061139,4390.0,,,
shelter_8,Shelter,8,이문초등학교 운동장,옥외대피소,서울특별시,동대문구,서울특별시 동대문구 신이문로 16(이문동),37.60219,127.064482,2850.0,,,
shelter_9,Shelter,9,홍파초등학교 운동장,옥외대피소,서울특별시,동대문구,서울특별시 동대문구 고산자로 518(제기동),37.586244,127.039149,441.0,,,
shelter_10,Shelter,10,청량중학교 운동장,옥외대피소,서울특별시,동대문구,서울특별시 동대문구 왕산로 301(청량리동),37.587621,127.051484,5578.0,,,
shelter_11,Shelter,11,삼육초등학교 운동장,옥외대피소,서울특별시,동대문구,서울특별시 동대문구 회기로10길 63(회기동),37.589139,127.047806,2080.0,,,
shelter_12,Shelter,12,휘경초등학교 운동장,옥외대피소,서울특별시,동대문구,서울특별시 동대문구 망우로6길 48(휘경동),37.5855,127.05887,3415.0,,,
shelter_13,Shelter,13,전동중학교 운동장,옥외대피소,서울특별시,동대문구,서울특별시 동대문구 장안벚꽃로 291(휘경동),37.585156,127.071181,4197.0,,,
shelter_14,Shelter,14,휘봉고등학교 운동장,옥외대피소,서울특별시,동대문구,서울특별시 동대문구 한천로 290(휘경동),37.586529,127.067989,4048.0,,,
shelter_15,Shelter,15,중평중학교 운동장,옥외대피소,서울특별시,노원구,서울특별시 노원구 동일로203길 87(하계동),37.636845,127.062424,2870.0,,,
shelter_16,Shelter,16,청계초등학교 운동장,옥외대피소,서울특별시,노원구,서울특별시 노원구 공릉로 431(중계동),37.644424,127.066435,4200.0,,,
shelter_17,Shelter,17,재현고등학교 운동장,옥외대피소,서울특별시,노원구,서울특별시 노원구 덕릉로82길 64(중계동),37.659542,127.07975,4340.0,,,
shelter_18,Shelter,18,원광초등학교 운동장,옥외대피소,서울특별시,노원구,서울특별시 노원구 덕릉로76길 18(중계동),37.653761,127.074867,2280.0,,,
shelter_19,Shelter,19,신창중학교 운동장,옥외대피소,서울특별시,노원구,서울특별시 노원구 월계로45길 92(월계동),37.628227,127.047956,2540.0,,,
shelter_20,Shelter,20,갈울근린공원,옥외대피소,서울특별시,노원구,서울특별시 노원구 상계동 644,37.666828,127.061018,3200.0,,,
shelter_21,Shelter,21,온수근린공원,옥외대피소,서울특별시,노원구,서울특별시 노원구 노원로34길 43(상계동),37.660915,127.063727,550.0,,,
shelter_22,Shelter,22,상경초등학교 운동장,옥외대피소,서울특별시,노원구,서울특별시 노원구 수락산로 237(상계동),37.670123,127.051701,2660.0,,,
shelter_23,Shelter,23,하계어린이공원,옥외대피소,서울특별시,노원구,서울특별시 노원구 하계동 273-3,37.632236,127.068952,1150.0,,,
shelter_24,Shelter,24,상계근린공원,옥외대피소,서울특별시,노원구,서울특별시 노원구 상계동 620,37.669797,127.050808,4860.0,,,
shelter_25,Shelter,25,동국대학교사범대학부속고등학교 운동장,옥외대피소,서울특별시,동대문구,서울특별시 동대문구 장안벚꽃로 201(장안동),37.577569,127.075108,7283.0,,,
shelter_26,Shelter,26,창덕여자중학교 운동장,옥외대피소,서울특별시,중구,서울특별시 중구 정동길 22(정동),37.566564,126.969599,5969.0,,,
shelter_27,Shelter,27,장충초등학교 운동장,옥외대피소,서울특별시,중구,서울특별시 중구 청구로17길 40(신당동),37.559574,127.011148,3123.0,,,
shelter_28,Shelter,28,태랑중학교 운동장,옥외대피소,서울특별시,노원구,서울특별시 노원구 화랑로51나길 51(공릉동),37.626535,127.09172,4870.0,,,
shelter_29,Shelter,29,노일중학교 운동장,옥외대피소,서울특별시,노원구,서울특별시 노원구 동일로231길 24(상계동),37.672866,127.053902,4580.0,,,
shelter_30,Shelter,30,광희초등학교 운동장,옥외대피소,서울특별시,중구,서울특별시 중구 다산로 269(신당동),37.56719,127.015146,4499.0,,,
shelter_31,Shelter,31,서울의료보건고등학교(경기여자상업고등학교) 운동장,옥외대피소,서울특별시,중구,서울특별시 중구 만리재로37길 30(만리동1가),37.556975,126.966743,788.0,,,
shelter_32,Shelter,32,한천초등학교 운동장,옥외대피소,서울특별시,노원구,서울특별시 노원구 마들로 45(월계동),37.620108,127.069053,4430.0,,,
shelter_33,Shelter,33,월계초등학교 운동장,옥외대피소,서울특별시,노원구,서울특별시 노원구 월계로45가길 10(월계동),37.62752,127.050879,3950.0,,,
shelter_34,Shelter,34,선곡초등학교,옥외대피소,서울특별시,노원구,서울특별시 노원구 광운로2길 1(월계동),37.618459,127.058145,3400.0,,,
shelter_35,Shelter,35,중계초등학교 운동장,옥외대피소,서울특별시,노원구,서울특별시 노원구 한글비석로19길 39(중계동),37.657419,127.073235,4030.0,,,
shelter_36,Shelter,36,노원초등학교 운동장,옥외대피소,서울특별시,노원구,서울특별시 노원구 동일로230나길 32(상계동),37.672832,127.058291,4010.0,,,
shelter_37,Shelter,37,을지초등학교 운동장,옥외대피소,서울특별시,노원구,서울특별시 노원구 중계로 239(중계동),37.650605,127.072571,2910.0,,,
shelter_38,Shelter,38,중현초등학교 운동장,옥외대피소,서울특별시,노원구,서울특별시 노원구 섬밭로 181(하계동),37.632111,127.066551,3220.0,,,
shelter_39,Shelter,39,연지초등학교 운동장,옥외대피소,서울특별시,노원구,서울특별시 노원구 월계로55길 48(월계동),37.633293,127.05979,2020.0,,,
shelter_40,Shelter,40,노원중학교 운동장,옥외대피소,서울특별시,노원구,서울특별시 노원구 동일로213길 26(상계동),37.649013,127.0598,2540.0,,,
shelter_41,Shelter,41,녹천초등학교 운동장,옥외대피소,서울특별시,노원구,서울특별시 노원구 마들로3길 34(월계동),37.628401,127.063509,2740.0,,,
shelter_42,Shelter,42,중원초등학교 운동장,옥외대피소,서울특별시,노원구,서울특별시 노원구 섬밭로 316(중계동),37.643473,127.062812,4020.0,,,
shelter_43,Shelter,43,상수초등학교 운동장,옥외대피소,서울특별시,노원구,서울특별시 노원구 동일로216길 66(상계동),37.651447,127.064823,2230.0,,,
shelter_44,Shelter,44,중원중학교 운동장,옥외대피소,서울특별시,노원구,서울특별시 노원구 공릉로 420(중계동),37.643867,127.068118,3120.0,,,
shelter_45,Shelter,45,청원초등학교 운동장,옥외대피소,서울특별시,노원구,서울특별시 노원구 한글비석로 506(상계동),37.665748,127.061338,3140.0,,,
shelter_46,Shelter,46,경기기계공업고등학교 운동장,옥외대피소,서울특별시,노원구,서울특별시 노원구 공릉로 264(하계동),37.633232,127.074115,12900.0,,,
shelter_47,Shelter,47,혜성여자고등학교 운동장,옥외대피소,서울특별시,노원구,서울특별시 노원구 하계동 산 16-38,37.641184,127.073858,8880.0,,,
shelter_48,Shelter,48,불암중학교 운동장,옥외대피소,서울특별시,노원구,서울특별시 노원구 한글비석로5길 45(하계동),37.645554,127.073823,3680.0,,,
shelter_49,Shelter,49,신상계초등학교 운동장,옥외대피소,서울특별시,노원구,서울특별시 노원구 상계로 267(상계동),37.66778,127.076151,2560.0,,,
shelter_50,Shelter,50,월계중학교 운동장,옥외대피소,서울특별시,노원구,서울특별시 노원구 월계로45가길 54(월계동),37.630254,127.051731,4360.0,,,
shelter_51,Shelter,51,상천초등학교 운동장,옥외대피소,서울특별시,노원구,서울특별시 노원구 덕릉로 443(상계동),37.645922,127.057883,3500.0,,,
shelter_52,Shelter,52,상원중학교 운동장,옥외대피소,서울특별시,노원구,서울특별시 노원구 수락산로 182(상계동),37.67129,127.059496,2180.0,,,
shelter_53,Shelter,53,동일초등학교 운동장,옥외대피소,서울특별시,노원구,서울특별시 노원구 한글비석로 566(상계동),37.664834,127.054657,2380.0,,,
shelter_54,Shelter,54,상월초등학교 운동장,옥외대피소,서울특별시,노원구,서울특별시 노원구 동일로221길 27(상계동),37.658271,127.057241,4330.0,,,
shelter_55,Shelter,55,한내근린공원,옥외대피소,서울특별시,노원구,서울특별시 노원구 마들로 86(월계동),37.622104,127.06942,1740.0,,,
shelter_56,Shelter,56,녹천중학교 운동장,옥외대피소,서울특별시,노원구,서울특별시 노원구 월계로 376(월계동),37.631016,127.062383,4670.0,,,
shelter_57,Shelter,57,수락초등학교 운동장,옥외대피소,서울특별시,노원구,서울특별시 노원구 동일로 1745(상계동),37.683796,127.054544,4930.0,,,
shelter_58,Shelter,58,중현어린이공원,옥외대피소,서울특별시,노원구,서울특별시 노원구 하계동 272-1,37.631881,127.065645,3780.0,,,
shelter_59,Shelter,59,흥인초등학교 운동장,옥외대피소,서울특별시,중구,서울특별시 중구 청구로6길 11(신당동),37.560395,127.014267,1339.0,,,
shelter_60,Shelter,60,상계초등학교 운동장,옥외대피소,서울특별시,노원구,서울특별시 노원구 상계로9길 39(상계동),37.659118,127.065671,1830.0,,,
shelter_61,Shelter,61,상명초등학교 운동장,옥외대피소,서울특별시,노원구,서울특별시 노원구 덕릉로 541(중계동),37.648215,127.06758,1700.0,,,
shelter_62,Shelter,62,용화여자고등학교 운동장,옥외대피소,서울특별시,노원구,서울특별시 노원구 동일로 1461(상계동),37.658752,127.058526,3370.0,,,
shelter_63,Shelter,63,청구초등학교 운동장,옥외대피소,서울특별시,중구,서울특별시 중구 다산로 170(신당동),37.558392,127.013863,5835.0,,,
shelter_64,Shelter,64,봉래초등학교 운동장,옥외대피소,서울특별시,중구,서울특별시 중구 손기정로 73(만리동2가),37.55629,126.964083,2436.0,,,
shelter_65,Shelter,65,노일초등학교 운동장,옥외대피소,서울특별시,노원구,서울특별시 노원구 동일로 1625(상계동),37.67309,127.054761,2360.0,,,
shelter_66,Shelter,66,온곡초등학교 운동장,옥외대피소,서울특별시,노원구,서울특별시 노원구 한글비석로52길 59(상계동),37.667302,127.066109,1580.0,,,
shelter_67,Shelter,67,온곡중학교운동장,옥외대피소,서울특별시,노원구,서울특별시 노원구 노원로 492(상계동),37.660066,127.064687,264.0,,,
shelter_68,Shelter,68,수락중학교 운동장,옥외대피소,서울특별시,노원구,서울특별시 노원구 동일로 1729(상계동),37.68264,127.054568,4030.0,,,
shelter_69,Shelter,69,장충단공원,옥외대피소,서울특별시,중구,서울특별시 중구 장충동2가 197-1,37.558556,127.005037,32651.0,,,
shelter_70,Shelter,70,성동글로벌경영고등학교 운동장,옥외대피소,서울특별시,중구,서울특별시 중구 퇴계로 375(신당동),37.565554,127.013105,3002.0,,,
shelter_71,Shelter,71,성동공업고등학교 운동장,옥외대피소,서울특별시,중구,서울특별시 중구 다산로 290(흥인동),37.568781,127.01649,3670.0,,,
shelter_72,Shelter,72,손기정체육공원 ,옥외대피소,서울특별시,중구,서울특별시 중구 손기정로 101(만리동2가),37.555396,126.964965,4244.0,,,
shelter_73,Shelter,73,한양공업고등학교 운동장,옥외대피소,서울특별시,중구,서울특별시 중구 을지로 299(신당동),37.565612,127.011767,2601.0,,,
shelter_74,Shelter,74,충무초등학교 운동장,옥외대피소,서울특별시,중구,서울특별시 중구 퇴계로50길 13(장충동2가),37.562261,127.001883,3863.0,,,
shelter_75,Shelter,75,공연초등학교 운동장,옥외대피소,서울특별시,노원구,서울특별시 노원구 동일로192가길 16(공릉동),37.62695,127.074461,3800.0,,,
shelter_76,Shelter,76,연촌초등학교 운동장,옥외대피소,서울특별시,노원구,서울특별시 노원구 공릉로58길 36(하계동),37.634747,127.072801,3680.0,,,
shelter_77,Shelter,77,월계고등학교 운동장,옥외대피소,서울특별시,노원구,서울특별시 노원구 초안산로5길 66(월계동),37.631805,127.048725,1760.0,,,
shelter_78,Shelter,78,덕수초등학교 운동장,옥외대피소,서울특별시,중구,서울특별시 중구 덕수궁길 140(정동),37.568468,126.974526,2536.0,,,
shelter_79,Shelter,79,용두초등학교 운동장,옥외대피소,서울특별시,동대문구,서울특별시 동대문구 천호대로13길 43(용두동),37.575628,127.028934,529.0,,,
shelter_80,Shelter,80,전농초등학교 운동장,옥외대피소,서울특별시,동대문구,서울특별시 동대문구 사가정로 66(전농동),37.574218,127.054528,2066.0,,,
shelter_81,Shelter,81,간데메공원,옥외대피소,서울특별시,동대문구,서울특별시 동대문구 서울시립대로2길 59(답십리동),37.573324,127.048752,15179.0,,,
shelter_82,Shelter,82,안골어린이공원,옥외대피소,서울특별시,동대문구,서울특별시 동대문구 천호대로77다길 20(장안동),37.56532,127.064349,1652.0,,,
shelter_83,Shelter,83,신답초등학교 운동장,옥외대피소,서울특별시,동대문구,서울특별시 동대문구 천호대로 177(답십리동),37.572881,127.043338,1942.0,,,
shelter_84,Shelter,84,성일중학교 운동장,옥외대피소,서울특별시,동대문구,서울특별시 동대문구 왕산로23길 55(제기동),37.581178,127.033915,441.0,,,
shelter_85,Shelter,85,동대문중학교 운동장,옥외대피소,서울특별시,동대문구,서울특별시 동대문구 사가정로 59(전농동),37.574246,127.052434,2031.0,,,
shelter_86,Shelter,86,장일어린이공원,옥외대피소,서울특별시,동대문구,서울특별시 동대문구 장안동 164-1,37.569913,127.065186,992.0,,,
shelter_87,Shelter,87,답십리초등학교 운동장,옥외대피소,서울특별시,동대문구,서울특별시 동대문구 전농로3길 23(답십리동),37.568669,127.055412,2550.0,,,
shelter_88,Shelter,88,장평근린공원,옥외대피소,서울특별시,동대문구,서울특별시 동대문구 장안벚꽃로 67(장안동),37.567317,127.074007,15698.0,,,
shelter_89,Shelter,89,경희초등학교 운동장,옥외대피소,서울특별시,동대문구,서울특별시 동대문구 경희대로 23(회기동),37.59485,127.049525,4500.0,,,
shelter_90,Shelter,90,늘봄어린이공원,옥외대피소,서울특별시,동대문구,서울특별시 동대문구 장한로26나길 6(장안동),37.571455,127.072386,1659.0,,,
shelter_91,Shelter,91,서울반도체고등학교 운동장,옥외대피소,서울특별시,동대문구,서울특별시 동대문구 겸재로 21(휘경동),37.584888,127.069856,3456.0,,,
shelter_92,Shelter,92,중계중학교 운동장,옥외대피소,서울특별시,노원구,서울특별시 노원구 덕릉로76길 23(중계동),37.655097,127.075253,4170.0,,,
shelter_93,Shelter,93,태랑초등학교 운동장,옥외대피소,서울특별시,노원구,서울특별시 노원구 화랑로51나길 31(공릉동),37.625871,127.090928,2020.0,,,
shelter_94,Shelter,94,한천중학교 운동장,옥외대피소,서울특별시,노원구,서울특별시 노원구 공릉로 265(공릉동),37.630909,127.07288,3580.0,,,
shelter_95,Shelter,95,노원고등학교 운동장,옥외대피소,서울특별시,노원구,서울특별시 노원구 노원로 586(상계동),37.66222,127.053395,2930.0,,,
shelter_96,Shelter,96,태릉초등학교 운동장,옥외대피소,서울특별시,노원구,서울특별시 노원구 노원로1길 36(공릉동),37.622405,127.084996,4630.0,,,
shelter_97,Shelter,97,광운인공지능고등학교,옥외대피소,서울특별시,노원구,서울특별시 노원구 광운로1길 24(월계동),37.620231,127.056128,9540.0,,,
shelter_98,Shelter,98,방아다리어린이공원,옥외대피소,서울특별시,동대문구,서울특별시 동대문구 제기동 132-1,37.585084,127.034882,441.0,,,
shelter_99,Shelter,99,숭인중학교 운동장,옥외대피소,서울특별시,동대문구,서울특별시 동대문구 천호대로47길 34(답십리동),37.573484,127.044269,1577.0,,,
shelter_100,Shelter,100,동산어린이공원,옥외대피소,서울특별시,동대문구,서울특별시 동대문구 답십리동 998-1,37.566974,127.057552,1231.0,,,
shelter_101,Shelter,101,동답초등학교 운동장,옥외대피소,서울특별시,동대문구,서울특별시 동대문구 답십리로60길 12(답십리동),37.572026,127.064793,2158.0,,,
shelter_102,Shelter,102,안평초등학교 운동장,옥외대피소,서울특별시,동대문구,서울특별시 동대문구 장한로14길 61(장안동),37.565624,127.071871,3433.0,,,
shelter_103,Shelter,103,대광고등학교,옥외대피소,서울특별시,동대문구,서울특별시 동대문구 안암로 6(신설동),37.577651,127.024577,4500.0,,,
shelter_104,Shelter,104,홍릉초등학교 운동장,옥외대피소,서울특별시,동대문구,서울특별시 동대문구 회기로 90(청량리동),37.590747,127.047032,3968.0,,,
shelter_105,Shelter,105,장평초등학교 운동장,옥외대피소,서울특별시,동대문구,서울특별시 동대문구 답십리로69길 27(장안동),37.573355,127.073278,4157.0,,,
shelter_106,Shelter,106,경희여자고등학교 운동장,옥외대피소,서울특별시,동대문구,서울특별시 동대문구 경희대로 23(회기동),37.594709,127.051023,3131.0,,,
shelter_107,Shelter,107,을지중학교 운동장,옥외대피소,서울특별시,노원구,서울특별시 노원구 덕릉로 580(중계동),37.650118,127.072116,2950.0,,,
shelter_108,Shelter,108,재현중학교 운동장,옥외대피소,서울특별시,노원구,서울특별시 노원구 덕릉로82길 64(중계동),37.660932,127.080614,2050.0,,,
shelter_109,Shelter,109,서라벌고등학교 운동장,옥외대피소,서울특별시,노원구,서울특별시 노원구 한글비석로5길 18(중계동),37.645139,127.075267,295.0,,,
shelter_110,Shelter,110,정화고등학교 운동장,옥외대피소,서울특별시,동대문구,서울특별시 동대문구 제기동 299,37.585645,127.040795,441.0,,,
shelter_111,Shelter,111,장평중학교 운동장,옥외대피소,서울특별시,동대문구,서울특별시 동대문구 답십리로72길 158(장안동),37.566267,127.070505,8207.0,,,
shelter_112,Shelter,112,청량초등학교 운동장,옥외대피소,서울특별시,동대문구,서울특별시 동대문구 회기로25길 31(회기동),37.59197,127.055063,2750.0,,,
shelter_113,Shelter,113,휘봉초등학교 운동장,옥외대피소,서울특별시,동대문구,서울특별시 동대문구 장안벚꽃로 309(휘경동),37.585874,127.070296,2368.0,,,
shelter_114,Shelter,114,아름드리어린이공원,옥외대피소,서울특별시,동대문구,서울특별시 동대문구 전농동 688-7,37.579083,127.059696,2626.0,,,
shelter_115,Shelter,115,종암초등학교 운동장,옥외대피소,서울특별시,동대문구,서울특별시 동대문구 무학로44길 25(제기동),37.581787,127.031421,4412.0,,,
shelter_116,Shelter,116,전곡초등학교 운동장,옥외대피소,서울특별시,동대문구,서울특별시 동대문구 전농로 172(전농동),37.580268,127.056883,2230.0,,,
shelter_117,Shelter,117,전동초등학교 운동장,옥외대피소,서울특별시,동대문구,서울특별시 동대문구 전농로16길 61(전농동),37.578995,127.061512,1755.0,,,
shelter_118,Shelter,118,배봉산근린공원 야외무대,옥외대피소,서울특별시,동대문구,서울특별시 동대문구 사가정로 187(전농동),37.578494,127.063048,1745.0,,,
shelter_119,Shelter,119,남산초등학교 운동장,옥외대피소,서울특별시,중구,서울특별시 중구 퇴계로22길 17(남산동2가),37.560271,126.986276,1148.0,,,
shelter_120,Shelter,120,꿈나무어린이공원,옥외대피소,서울특별시,금천구,서울특별시 금천구 독산동 378-434,37.463575,126.905017,567.0,,,
shelter_121,Shelter,121,신암중학교 운동장,옥외대피소,서울특별시,강동구,서울특별시 강동구 고덕로 65(암사동),37.555461,127.133172,5898.0,,,
shelter_122,Shelter,122,낙산(어린이)공원,옥외대피소,서울특별시,종로구,서울특별시 종로구 창신동 611-48,37.579568,127.010445,1641.0,,,
shelter_123,Shelter,123,강명중학교운동장,옥외대피소,서울특별시,강동구,서울특별시 강동구 상일로12길 56(상일동),37.555333,127.175084,3213.0,,,
shelter_124,Shelter,124,"이화여자외국어고등학교, 이화여자고등학교 운동장 및 노천극장",옥외대피소,서울특별시,중구,서울특별시 중구 통일로4길 30(순화동),37.564886,126.969749,9150.0,,,
shelter_125,Shelter,125,어린이대공원,옥외대피소,서울특별시,광진구,서울특별시 광진구 능동로 216(능동),37.549086,127.081218,225000.0,,,
shelter_126,Shelter,126,신길중학교 운동장,옥외대피소,서울특별시,영등포구,서울특별시 영등포구 신길로28길 43(신길동),37.501891,126.91608,1200.0,,,
shelter_127,Shelter,127,옥계어린이공원,옥외대피소,서울특별시,금천구,서울특별시 금천구 시흥대로86길 20(독산동),37.460099,126.90046,1058.0,,,
shelter_128,Shelter,128,중앙어린이공원,옥외대피소,서울특별시,금천구,"서울특별시 금천구 시흥대로 165(시흥동, 남서울힐스테이트)",37.447159,126.901399,1515.0,,,
shelter_129,Shelter,129,항동중학교 운동장,옥외대피소,서울특별시,구로구,서울특별시 구로구 항동 235-31,37.482453,126.820486,4601.0,,,
shelter_130,Shelter,130,전농중학교 운동장,옥외대피소,서울특별시,동대문구,서울특별시 동대문구 사가정로13길 71(전농동),37.580414,127.060173,6640.0,,,
shelter_131,Shelter,131,서울문화고등학교 운동장,옥외대피소,서울특별시,도봉구,서울특별시 도봉구 마들로 598(방학동),37.663703,127.047159,5982.0,,,
shelter_132,Shelter,132,풍림어린이공원,옥외대피소,서울특별시,금천구,"서울특별시 금천구 시흥대로 165(시흥동, 남서울힐스테이트)",37.448327,126.901437,2195.0,,,
shelter_133,Shelter,133,계상초등학교 운동장,옥외대피소,서울특별시,노원구,서울특별시 노원구 한글비석로41가길 24(상계동),37.663057,127.067604,4270.0,,,
shelter_134,Shelter,134,상원초등학교 운동장,옥외대피소,서울특별시,노원구,서울특별시 노원구 한글비석로54길 119(상계동),37.667606,127.060217,3970.0,,,
shelter_135,Shelter,135,용동초등학교 운동장,옥외대피소,서울특별시,노원구,서울특별시 노원구 한글비석로1길 81-11 (중계동),37.641472,127.069485,3270.0,,,
shelter_136,Shelter,136,하계중학교 운동장,옥외대피소,서울특별시,노원구,서울특별시 노원구 노원로 261-8 (하계동),37.640762,127.071503,4890.0,,,
shelter_137,Shelter,137,덕암초등학교 운동장,옥외대피소,서울특별시,노원구,서울특별시 노원구 덕릉로112길 68(상계동),37.666351,127.080835,1790.0,,,
shelter_138,Shelter,138,중평초등학교 운동장,옥외대피소,서울특별시,노원구,서울특별시 노원구 섬밭로 241(하계동),37.637306,127.064183,2660.0,,,
shelter_139,Shelter,139,공릉초등학교 운동장,옥외대피소,서울특별시,노원구,서울특별시 노원구 동일로173길 12(공릉동),37.619067,127.074244,4540.0,,,
shelter_140,Shelter,140,공릉중학교 운동장,옥외대피소,서울특별시,노원구,서울특별시 노원구 노원로1길 42(공릉동),37.62187,127.084164,4590.0,,,
shelter_141,Shelter,141,용원초등학교 운동장,옥외대피소,서울특별시,노원구,서울특별시 노원구 섬밭로 144(공릉동),37.628949,127.069106,3490.0,,,
shelter_142,Shelter,142,상계중학교 운동장,옥외대피소,서울특별시,노원구,서울특별시 노원구 노원로 398(상계동),37.652212,127.06896,7190.0,,,
shelter_143,Shelter,143,신상중학교 운동장,옥외대피소,서울특별시,노원구,서울특별시 노원구 동일로216길 42(상계동),37.651115,127.063564,4220.0,,,
shelter_144,Shelter,144,상경중학교 운동장,옥외대피소,서울특별시,노원구,서울특별시 노원구 동일로227길 61(상계동),37.666462,127.053599,3530.0,,,
shelter_145,Shelter,145,당현초등학교 운동장,옥외대피소,서울특별시,노원구,서울특별시 노원구 동일로213길 52(상계동),37.64857,127.05832,3580.0,,,
shelter_146,Shelter,146,상계제일중학교 운동장,옥외대피소,서울특별시,노원구,서울특별시 노원구 덕릉로86길 29-15 (중계동),37.66116,127.077744,3470.0,,,
shelter_147,Shelter,147,상곡초등학교 운동장,옥외대피소,서울특별시,노원구,서울특별시 노원구 노원로38길 34(상계동),37.662338,127.062382,2640.0,,,
shelter_148,Shelter,148,성동고등학교 운동장,옥외대피소,서울특별시,중구,서울특별시 중구 퇴계로90길 17(신당동),37.563782,127.022446,3670.0,,,
shelter_149,Shelter,149,금나래중앙공원,옥외대피소,서울특별시,금천구,서울특별시 금천구 벚꽃로 14(독산동),37.4576,126.8948,16250.0,,,
shelter_150,Shelter,150,까치공원,옥외대피소,서울특별시,금천구,서울특별시 금천구 시흥동 959-2,37.4396,126.905,230.0,,,
shelter_151,Shelter,151,신계역사공원,옥외대피소,서울특별시,용산구,서울특별시 용산구 청파로 139-25 (신계동),37.535058,126.966283,15000.0,,,
shelter_152,Shelter,152,선사고등학교 운동장,옥외대피소,서울특별시,강동구,서울특별시 강동구 고덕로25길 17(암사동),37.555946,127.135849,3571.0,,,
shelter_153,Shelter,153,강일중학교 운동장,옥외대피소,서울특별시,강동구,서울특별시 강동구 고덕로27길 12(암사동),37.554972,127.138252,1102.0,,,
shelter_154,Shelter,154,탑골어린이공원,옥외대피소,서울특별시,관악구,서울특별시 관악구 봉천동 1510,37.474456,126.961103,492.0,,,
shelter_155,Shelter,155,남강어린이공원,옥외대피소,서울특별시,관악구,서울특별시 관악구 신림동 1678-12,37.473513,126.924641,774.0,,,
shelter_156,Shelter,156,목화어린이공원,옥외대피소,서울특별시,관악구,서울특별시 관악구 신림동 1716-1,37.467912,126.942301,388.0,,,
shelter_157,Shelter,157,약수어린이공원,옥외대피소,서울특별시,관악구,서울특별시 관악구 신림동 1685,37.473186,126.91247,533.0,,,
shelter_158,Shelter,158,청룡어린이공원,옥외대피소,서울특별시,관악구,서울특별시 관악구 봉천동 1557-34,37.477672,126.94479,852.0,,,
shelter_159,Shelter,159,해누리이음학교,옥외대피소,서울특별시,송파구,서울특별시 송파구 송파대로37길 95(가락동),37.498424,127.102147,2303.0,,,
shelter_160,Shelter,160,미도어린이공원,옥외대피소,서울특별시,서초구,서울특별시 서초구 반포동 53-1,37.501711,127.010758,988.0,,,
shelter_161,Shelter,161,국사봉어린이공원,옥외대피소,서울특별시,관악구,서울특별시 관악구 봉천동 1511-5,37.489989,126.934107,412.0,,,
shelter_162,Shelter,162,서울교육대학교 부설초등학교 운동장,옥외대피소,서울특별시,서초구,서울특별시 서초구 서초중앙로 96(서초동),37.490249,127.016948,2254.0,,,
shelter_163,Shelter,163,강일초등학교운동장,옥외대피소,서울특별시,강동구,서울특별시 강동구 아리수로98길 24(강일동),37.564978,127.177318,4044.0,,,
shelter_164,Shelter,164,용담어린이공원,옥외대피소,서울특별시,관악구,서울특별시 관악구 봉천동 850-8,37.475512,126.94358,646.0,,,
shelter_165,Shelter,165,서강대학교 대운동장,옥외대피소,서울특별시,마포구,서울특별시 마포구 고산16길 58(대흥동),37.551081,126.942173,7618.5,,,
shelter_166,Shelter,166,서광어린이공원,옥외대피소,서울특별시,관악구,서울특별시 관악구 신림동 98-402,37.475209,126.942666,459.0,,,
shelter_167,Shelter,167,일신어린이공원,옥외대피소,서울특별시,성북구,서울특별시 성북구 종암동 134-8,37.600001,127.039576,942.0,,,
shelter_168,Shelter,168,성북동길 공영주차,옥외대피소,서울특별시,성북구,서울특별시 성북구 성북동 230-20,37.594848,126.993732,1269.0,,,
shelter_169,Shelter,169,성북동 우리마을 공동 제9호 주차장,옥외대피소,서울특별시,성북구,서울특별시 성북구 성북동 348-19,37.59536,126.98947,991.0,,,
shelter_170,Shelter,170,북서울꿈의숲,옥외대피소,서울특별시,강북구,서울특별시 강북구 월계로 173(번동),37.621557,127.040899,684157.0,,,
shelter_171,Shelter,171,누리숲어린이공원,옥외대피소,서울특별시,서초구,서울특별시 서초구 서초동 1301-25,37.502051,127.021195,2233.0,,,
shelter_172,Shelter,172,서래상상어린이공원,옥외대피소,서울특별시,서초구,서울특별시 서초구 반포동 71-6,37.498289,127.000331,997.0,,,
shelter_173,Shelter,173,햇님어린이공원,옥외대피소,서울특별시,서초구,서울특별시 서초구 방배동 424-29,37.482956,126.985131,2119.0,,,
shelter_174,Shelter,174,이수중학교 운동장,옥외대피소,서울특별시,서초구,서울특별시 서초구 방배중앙로3길 32(방배동),37.480816,126.990389,4033.0,,,
shelter_175,Shelter,175,서울특별시교육청 교육연수원,옥외대피소,서울특별시,서초구,서울특별시 서초구 남부순환로 2248(방배동),37.471664,126.997245,2500.0,,,
shelter_176,Shelter,176,청계산수변공원,옥외대피소,서울특별시,서초구,서울특별시 서초구 신원동 296,37.451931,127.053319,58346.0,,,
shelter_177,Shelter,177,면중초등학교운동장,옥외대피소,서울특별시,중랑구,서울특별시 중랑구 용마산로70길 43(면목동),37.582099,127.096946,1751.0,,,
shelter_178,Shelter,178,e편한세상어린이공원,옥외대피소,서울특별시,관악구,서울특별시 관악구 봉천동 1734,37.47717,126.941147,3114.0,,,
shelter_179,Shelter,179,인헌어린이공원,옥외대피소,서울특별시,관악구,서울특별시 관악구 봉천동 196-240,37.475399,126.962581,469.0,,,
shelter_180,Shelter,180,색동어린이공원,옥외대피소,서울특별시,관악구,서울특별시 관악구 신림로70길 74(신림동),37.486454,126.932709,952.0,,,
shelter_181,Shelter,181,난곡어린이공원,옥외대피소,서울특별시,관악구,서울특별시 관악구 신림동 1563-56,37.474117,126.915275,632.0,,,
shelter_182,Shelter,182,난우어린이공원,옥외대피소,서울특별시,관악구,서울특별시 관악구 난곡로61길 1(신림동),37.480233,126.914084,470.0,,,
shelter_183,Shelter,183,범바위 어린이 공원,옥외대피소,서울특별시,성북구,서울특별시 성북구 고려대로8길 7-2 (안암동2가),37.58539,127.021523,1263.0,,,
shelter_184,Shelter,184,용두희망어린이공원,옥외대피소,서울특별시,동대문구,서울특별시 동대문구 용두동 716-1,37.580078,127.026443,529.0,,,
shelter_370,Shelter,370,창천초등학교 운동장 ,옥외대피소,서울특별시,마포구,서울특별시 마포구 백범로1길 56(노고산동),37.554464,126.939547,3544.0,,,
shelter_371,Shelter,371,동교초등학교 운동장,옥외대피소,서울특별시,마포구,서울특별시 마포구 월드컵로25길 86(망원동),37.5583,126.9027,3047.0,,,
shelter_372,Shelter,372,쌈지마당,옥외대피소,서울특별시,마포구,서울특별시 마포구 방울내로 24-12 (망원동),37.557649,126.898525,2850.0,,,
shelter_373,Shelter,373,상지초등학교 운동장,옥외대피소,서울특별시,마포구,서울특별시 마포구 월드컵로42길 30(상암동),37.579382,126.882376,3054.0,,,
shelter_374,Shelter,374,당산초등학교 운동장,옥외대피소,서울특별시,영등포구,서울특별시 영등포구 선유로55길 32(양평동4가),37.53939,126.896102,6160.6,,,
shelter_375,Shelter,375,구일중학교 운동장,옥외대피소,서울특별시,구로구,서울특별시 구로구 구일로 90-133 (구로동),37.494803,126.873971,3835.0,,,
shelter_376,Shelter,376,오류초등학교 운동장,옥외대피소,서울특별시,구로구,서울특별시 구로구 경인로19길 39(오류동),37.497976,126.842309,4619.0,,,
shelter_377,Shelter,377,신도림초등학교 운동장,옥외대피소,서울특별시,구로구,서울특별시 구로구 신도림로19길 44(신도림동),37.512343,126.882592,2116.2,,,
shelter_378,Shelter,378,영원중학교 운동장,옥외대피소,서울특별시,영등포구,서울특별시 영등포구 영등포로62길 31(영등포동),37.515845,126.914245,3559.0,,,
shelter_379,Shelter,379,영동초등학교 운동장,옥외대피소,서울특별시,영등포구,서울특별시 영등포구 국회대로53길 20(당산동),37.526626,126.907228,1650.6,,,
shelter_380,Shelter,380,면목고등학교운동장,옥외대피소,서울특별시,중랑구,서울특별시 중랑구 용마산로72길 36-14 (면목동),37.584522,127.096801,4273.0,,,
shelter_381,Shelter,381,묵현초등학교운동장,옥외대피소,서울특별시,중랑구,서울특별시 중랑구 동일로157길 75(묵동),37.608789,127.073359,1200.0,,,
shelter_382,Shelter,382,봉화산근린공원,옥외대피소,서울특별시,중랑구,서울특별시 중랑구 신내동 산 124,37.608095,127.092762,977.0,,,
shelter_383,Shelter,383,서울염창초등학교 운동장,옥외대피소,서울특별시,강서구,서울특별시 강서구 양천로 646-28 (염창동),37.552818,126.867975,3649.0,,,
shelter_384,Shelter,384,염창중학교 운동장,옥외대피소,서울특별시,강서구,서울특별시 강서구 양천로67가길 83(염창동),37.553543,126.871951,3663.0,,,
shelter_385,Shelter,385,서울등원초등학교 운동장,옥외대피소,서울특별시,강서구,서울특별시 강서구 화곡로65길 90(등촌동),37.56032,126.849686,2207.0,,,
shelter_386,Shelter,386,서울등양초등학교 운동장,옥외대피소,서울특별시,강서구,서울특별시 강서구 강서로56나길 140(등촌동),37.564685,126.844667,3437.0,,,
shelter_387,Shelter,387,서울등명초등학교 운동장,옥외대피소,서울특별시,강서구,서울특별시 강서구 강서로56나길 34(등촌동),37.560431,126.842058,3032.0,,,
shelter_388,Shelter,388,미양초등학교 운동장,옥외대피소,서울특별시,강북구,서울특별시 강북구 솔샘로 195(미아동),37.620872,127.013786,2660.0,,,
shelter_389,Shelter,389,등원중학교 운동장,옥외대피소,서울특별시,강서구,서울특별시 강서구 화곡로65길 50(등촌동),37.559328,126.851308,2838.0,,,
shelter_390,Shelter,390,번동초등학교운동장,옥외대피소,서울특별시,강북구,서울특별시 강북구 오현로 204(번동),37.628963,127.04075,3329.0,,,
shelter_391,Shelter,391,면일초등학교운동장,옥외대피소,서울특별시,중랑구,서울특별시 중랑구 용마산로100길 13(망우동),37.591691,127.099529,2524.0,,,
shelter_392,Shelter,392,창문여자고등학교운동장,옥외대피소,서울특별시,강북구,서울특별시 강북구 월계로 61(미아동),37.61295,127.036629,2324.0,,,
shelter_393,Shelter,393,송중초등학교운동장,옥외대피소,서울특별시,강북구,서울특별시 강북구 오현로 9(미아동),37.616852,127.031663,2495.0,,,
shelter_394,Shelter,394,샛강어린이공원,옥외대피소,서울특별시,강북구,서울특별시 강북구 도봉로96다길 6(번동),37.639335,127.032982,634.0,,,
shelter_395,Shelter,395,오현초등학교운동장,옥외대피소,서울특별시,강북구,서울특별시 강북구 월계로 221(번동),37.623176,127.046881,4045.0,,,
shelter_396,Shelter,396,개롱공원,옥외대피소,서울특별시,송파구,서울특별시 송파구 동남로 178(가락동),37.493698,127.130796,19800.0,,,
shelter_397,Shelter,397,선사초등학교운동장,옥외대피소,서울특별시,강동구,서울특별시 강동구 올림픽로 837(암사동),37.555984,127.129233,5760.0,,,
shelter_398,Shelter,398,신진과학기술고등학교 운동장,옥외대피소,서울특별시,은평구,서울특별시 은평구 은평로6길 16(응암동),37.598419,126.918183,2478.0,,,
shelter_399,Shelter,399,예일여자고등학교 운동장,옥외대피소,서울특별시,은평구,서울특별시 은평구 연서로 117(구산동),37.61013,126.915272,6569.0,,,
shelter_400,Shelter,400,선정고등학교 운동장,옥외대피소,서울특별시,은평구,서울특별시 은평구 서오릉로20길 19(갈현동),37.618037,126.908865,28574.0,,,
shelter_401,Shelter,401,길마어린이공원,옥외대피소,서울특별시,은평구,서울특별시 은평구 연서로21길 15(갈현동),37.614708,126.915868,1590.0,,,
shelter_402,Shelter,402,선유중학교 운동장,옥외대피소,서울특별시,영등포구,서울특별시 영등포구 선유로 213(양평동3가),37.53275,126.894287,3841.0,,,
shelter_403,Shelter,403,서울예술고등학교 운동장,옥외대피소,서울특별시,종로구,서울특별시 종로구 평창문화로 70(평창동),37.605477,126.96963,4725.0,,,
shelter_404,Shelter,404,윤중중학교 운동장,옥외대피소,서울특별시,영등포구,서울특별시 영등포구 여의동로3길 3(여의도동),37.518749,126.923678,5783.0,,,
shelter_405,Shelter,405,용답근린공원(용답휴식공원),옥외대피소,서울특별시,성동구,서울특별시 성동구 용답동 128-3,37.569935,127.047575,6046.0,,,
shelter_406,Shelter,406,증산초등학교 운동장,옥외대피소,서울특별시,은평구,서울특별시 은평구 증산서길 61(증산동),37.582191,126.904809,2224.0,,,
shelter_407,Shelter,407,유석초등학교 운동장,옥외대피소,서울특별시,강서구,서울특별시 강서구 화곡로 403(등촌동),37.56023,126.853533,2503.0,,,
shelter_408,Shelter,408,동양고등학교 운동장,옥외대피소,서울특별시,강서구,서울특별시 강서구 허준로 50(가양동),37.568806,126.847797,3077.0,,,
shelter_409,Shelter,409,성내하니공원,옥외대피소,서울특별시,강동구,서울특별시 강동구 성내로3가길 71(성내동),37.529802,127.126703,2850.0,,,
shelter_410,Shelter,410,영신고등학교 운동장,옥외대피소,서울특별시,영등포구,서울특별시 영등포구 대방천로14길 18(신길동),37.497329,126.909621,4189.9,,,
shelter_411,Shelter,411,서울숲공원,옥외대피소,서울특별시,성동구,서울특별시 성동구 성수동1가 720,37.544665,127.039736,22178.0,,,
shelter_412,Shelter,412,서신초등학교 운동장,옥외대피소,서울특별시,은평구,서울특별시 은평구 은평터널로 150(신사동),37.59217,126.907236,1092.0,,,
shelter_413,Shelter,413,향림공원,옥외대피소,서울특별시,성동구,서울특별시 성동구 성수동2가 289-28,37.546749,127.053432,248.0,,,
shelter_414,Shelter,414,명원초등학교 운동장,옥외대피소,서울특별시,강동구,서울특별시 강동구 명일로 364(명일동),37.55084,127.150393,6580.0,,,
shelter_415,Shelter,415,후창공원,옥외대피소,서울특별시,종로구,서울특별시 종로구 평창동 568-2,37.610131,126.96463,1651.0,,,
shelter_416,Shelter,416,월암근린공원,옥외대피소,서울특별시,종로구,서울특별시 종로구 송월동 1-2,37.571016,126.965666,12000.0,,,
shelter_417,Shelter,417,상명대학교사범대학부속여자중고등학교 운동장,옥외대피소,서울특별시,종로구,서울특별시 종로구 홍지문2길 20(홍지동),37.603833,126.957136,5053.0,,,
shelter_418,Shelter,418,상명대학교사범대학 부속초등학교 운동장,옥외대피소,서울특별시,종로구,서울특별시 종로구 홍지문2길 1(홍지동),37.60066,126.956535,1340.0,,,
shelter_419,Shelter,419,중앙고등학교 운동장,옥외대피소,서울특별시,종로구,서울특별시 종로구 창덕궁길 164(계동),37.585426,126.986978,10218.0,,,
shelter_420,Shelter,420,현석어린이공원,옥외대피소,서울특별시,마포구,서울특별시 마포구 현석동 1-5,37.544343,126.933274,1595.0,,,
shelter_421,Shelter,421,대동세무고등학교 운동장,옥외대피소,서울특별시,종로구,서울특별시 종로구 계동길 84-10 (계동),37.580996,126.987853,4257.0,,,
shelter_422,Shelter,422,면동초등학교운동장,옥외대피소,서울특별시,중랑구,서울특별시 중랑구 면목로57길 32(면목동),37.585122,127.086656,3006.0,,,
shelter_423,Shelter,423,영훈고등학교운동장,옥외대피소,서울특별시,강북구,서울특별시 강북구 도봉로13가길 19(미아동),37.613993,127.027902,4975.0,,,
shelter_424,Shelter,424,강북구민운동장,옥외대피소,서울특별시,강북구,서울특별시 강북구 오현로 187-25 (번동),37.629316,127.037279,6514.0,,,
shelter_425,Shelter,425,금암문화공원,옥외대피소,서울특별시,은평구,서울특별시 은평구 진관3로 15-59 (진관동),37.644325,126.918082,6587.0,,,
shelter_426,Shelter,426,청운초등학교 운동장,옥외대피소,서울특별시,종로구,서울특별시 종로구 자하문로 105(청운동),37.585555,126.969713,1993.0,,,
shelter_427,Shelter,427,삼선초등학교 운동장,옥외대피소,서울특별시,성북구,서울특별시 성북구 보문로29길 106(삼선동3가),37.586205,127.012446,6603.0,,,
shelter_428,Shelter,428,도선어린이공원,옥외대피소,서울특별시,성동구,서울특별시 성동구 무학로8길 8(홍익동),37.56542,127.031558,2232.0,,,
shelter_429,Shelter,429,덕수고등학교 운동장,옥외대피소,서울특별시,성동구,서울특별시 성동구 왕십리로 199(행당동),37.555243,127.042252,8640.0,,,
shelter_430,Shelter,430,광양고등학교 운동장,옥외대피소,서울특별시,광진구,서울특별시 광진구 자양로3가길 31(자양동),37.529332,127.085466,4669.0,,,
shelter_431,Shelter,431,천호공원광장,옥외대피소,서울특별시,강동구,서울특별시 강동구 올림픽로 702(천호동),37.544513,127.126437,1300.0,,,
shelter_432,Shelter,432,신명초등학교 운동장,옥외대피소,서울특별시,강동구,서울특별시 강동구 명일로24길 33(길동),37.541152,127.149338,3075.0,,,
shelter_433,Shelter,433,늘푸른어린이공원,옥외대피소,서울특별시,용산구,서울특별시 용산구 원효로41가길 14-19 (원효로3가),37.534837,126.956702,720.0,,,
shelter_434,Shelter,434,청운중학교 운동장,옥외대피소,서울특별시,종로구,서울특별시 종로구 창의문로 51(청운동),37.588807,126.971057,4133.0,,,
shelter_435,Shelter,435,매동초등학교 운동장,옥외대피소,서울특별시,종로구,서울특별시 종로구 사직로9길 19(필운동),37.577226,126.96689,2593.0,,,
shelter_436,Shelter,436,삼선중학교 운동장,옥외대피소,서울특별시,성북구,서울특별시 성북구 동소문동4가 278-174,37.591513,127.008527,4608.0,,,
shelter_437,Shelter,437,개운초등학교 운동장,옥외대피소,서울특별시,성북구,서울특별시 성북구 정릉로48길 52(돈암동),37.601791,127.027927,1336.0,,,
shelter_438,Shelter,438,덕성여자고등학교 운동장,옥외대피소,서울특별시,종로구,서울특별시 종로구 율곡로3길 50(안국동),37.577976,126.982727,3560.0,,,
shelter_439,Shelter,439,오류고등학교운동장,옥외대피소,서울특별시,구로구,서울특별시 구로구 오리로21길 2(궁동),37.500105,126.827452,3609.7,,,
shelter_440,Shelter,440,신양초등학교 운동장,옥외대피소,서울특별시,광진구,서울특별시 광진구 능동로 42(자양동),37.534499,127.069324,2344.0,,,
shelter_441,Shelter,441,화양초등학교 운동장,옥외대피소,서울특별시,광진구,서울특별시 광진구 군자로 9(화양동),37.544146,127.07124,1793.0,,,
shelter_442,Shelter,442,동의초등학교 운동장 ,옥외대피소,서울특별시,광진구,서울특별시 광진구 영화사로 111(구의동),37.553505,127.098465,3826.0,,,
shelter_443,Shelter,443,중마초등학교 운동장,옥외대피소,서울특별시,광진구,서울특별시 광진구 동일로72길 43(중곡동),37.565791,127.079836,2088.0,,,
shelter_444,Shelter,444,새빛어린이공원,옥외대피소,서울특별시,관악구,서울특별시 관악구 신사로10길 29(신림동),37.486155,126.915184,320.0,,,
shelter_445,Shelter,445,문성어린이공원,옥외대피소,서울특별시,관악구,서울특별시 관악구 시흥대로164길 27(신림동),37.481869,126.903051,955.0,,,
shelter_446,Shelter,446,장군봉근린공원,옥외대피소,서울특별시,관악구,서울특별시 관악구 봉천동 산 149-8,37.481005,126.936502,4653.0,,,
shelter_447,Shelter,447,천일초등학교운동장,옥외대피소,서울특별시,강동구,서울특별시 강동구 구천면로 266(천호동),37.544031,127.133113,1910.0,,,
shelter_448,Shelter,448,교동초등학교 운동장,옥외대피소,서울특별시,종로구,서울특별시 종로구 삼일대로 446(경운동),37.57473,126.987661,2600.0,,,
shelter_449,Shelter,449,대광초등학교 운동장,옥외대피소,서울특별시,성북구,서울특별시 성북구 안암로 5(보문동7가),37.579281,127.023534,977.0,,,
shelter_450,Shelter,450,숭덕초등학교 운동장,옥외대피소,서울특별시,성북구,서울특별시 성북구 정릉로 279(정릉동),37.604112,127.013946,4865.0,,,
shelter_451,Shelter,451,길원초등학교 운동장,옥외대피소,서울특별시,성북구,서울특별시 성북구 길음로15길 55(길음동),37.609694,127.016591,2119.0,,,
shelter_452,Shelter,452,월곡중학교 운동장,옥외대피소,서울특별시,성북구,서울특별시 성북구 장월로 6(상월곡동),37.606592,127.048125,2308.0,,,
shelter_453,Shelter,453,도시공단 공영주차장,옥외대피소,서울특별시,성북구,서울특별시 성북구 하월곡동 226-4,37.600373,127.041193,1453.0,,,
shelter_454,Shelter,454,장월초등학교 운동장,옥외대피소,서울특별시,성북구,서울특별시 성북구 한천로101길 66(장위동),37.622007,127.046879,1452.0,,,
shelter_455,Shelter,455,의릉 공영주차장,옥외대피소,서울특별시,성북구,서울특별시 성북구 화랑로32길 146-35 (석관동),37.604897,127.058536,1171.0,,,
shelter_456,Shelter,456,개운중학교 운동장,옥외대피소,서울특별시,성북구,서울특별시 성북구 북악산로 935(돈암동),37.594966,127.024885,1924.0,,,
shelter_457,Shelter,457,서원어린이공원,옥외대피소,서울특별시,도봉구,서울특별시 도봉구 도봉동 576-13,37.683826,127.043296,922.0,,,
shelter_458,Shelter,458,새싹어린이공원,옥외대피소,서울특별시,관악구,서울특별시 관악구 양녕로6다길 11-4 (봉천동),37.484458,126.949599,1490.0,,,
shelter_459,Shelter,459,한산초등학교운동장,옥외대피소,서울특별시,강동구,서울특별시 강동구 풍성로 261(둔촌동),37.528037,127.141413,5466.0,,,
shelter_460,Shelter,460,등마초등학교 운동장,옥외대피소,서울특별시,강서구,서울특별시 강서구 등촌로35길 12(등촌동),37.541965,126.862063,2627.0,,,
shelter_461,Shelter,461,샘말어린이공원,옥외대피소,서울특별시,도봉구,서울특별시 도봉구 방학동 611-5,37.668454,127.031552,1085.0,,,
shelter_462,Shelter,462,운현초등학교 운동장,옥외대피소,서울특별시,종로구,서울특별시 종로구 삼일대로 460(운니동),37.575747,126.988372,2300.0,,,
shelter_463,Shelter,463,올림픽기념국민생활관,옥외대피소,서울특별시,종로구,서울특별시 종로구 성균관로 91(혜화동),37.590121,126.998898,1402.0,,,
shelter_464,Shelter,464,밤골어린이공원,옥외대피소,서울특별시,도봉구,서울특별시 도봉구 창동 368,37.648808,127.045797,2279.0,,,
shelter_465,Shelter,465,송정초등학교 운동장,옥외대피소,서울특별시,강서구,서울특별시 강서구 공항대로3길 18(공항동),37.562063,126.810855,8300.0,,,
shelter_466,Shelter,466,장미어린이공원,옥외대피소,서울특별시,도봉구,서울특별시 도봉구 창동 553-8,37.638144,127.036328,1000.0,,,
shelter_467,Shelter,467,지봉골공원,옥외대피소,서울특별시,종로구,서울특별시 종로구 지봉로 97(창신동),37.578719,127.014728,1312.0,,,
shelter_468,Shelter,468,숭인(근린)공원,옥외대피소,서울특별시,종로구,서울특별시 종로구 숭인동 58-149,37.576307,127.017784,34047.0,,,
shelter_469,Shelter,469,종로산업정보학교 운동장,옥외대피소,서울특별시,종로구,서울특별시 종로구 종로58길 30(숭인동),37.571828,127.017373,1910.0,,,
shelter_470,Shelter,470,봉림어린이공원,옥외대피소,서울특별시,관악구,서울특별시 관악구 신림동 1510-2,37.482721,126.935697,885.0,,,
shelter_471,Shelter,471,길음중학교 운동장,옥외대피소,서울특별시,성북구,서울특별시 성북구 길음로 144(길음동),37.613634,127.018385,2062.0,,,
shelter_472,Shelter,472,와룡공원,옥외대피소,서울특별시,종로구,서울특별시 종로구 와룡공원길 192(명륜3가),37.591069,126.990267,1200.0,,,
shelter_473,Shelter,473,창신초등학교 운동장,옥외대피소,서울특별시,종로구,서울특별시 종로구 지봉로 73(창신동),37.576338,127.015015,2123.0,,,
shelter_474,Shelter,474,창2동마을공원,옥외대피소,서울특별시,도봉구,서울특별시 도봉구 덕릉로59길 63(창동),37.641245,127.036266,3104.0,,,
shelter_475,Shelter,475,서울시교육청학생교육원(구.공진중학교),옥외대피소,서울특별시,강서구,서울특별시 강서구 양천로55길 56(가양동),37.566241,126.850744,2424.0,,,
shelter_476,Shelter,476,송화초등학교 운동장,옥외대피소,서울특별시,강서구,서울특별시 강서구 마곡동 734-5,37.56826,126.817431,5518.0,,,
shelter_477,Shelter,477,물방울어린이공원,옥외대피소,서울특별시,도봉구,서울특별시 도봉구 창동 458-6,37.637571,127.041269,646.0,,,
shelter_478,Shelter,478,창3동마을공원,옥외대피소,서울특별시,도봉구,서울특별시 도봉구 우이천로4길 24-11 (창동),37.633336,127.041512,310.0,,,
shelter_479,Shelter,479,미화어린이공원,옥외대피소,서울특별시,도봉구,서울특별시 도봉구 창동 715-17,37.654933,127.03968,996.0,,,
shelter_480,Shelter,480,창원어린이공원,옥외대피소,서울특별시,도봉구,서울특별시 도봉구 창동 307,37.653,127.040306,2329.0,,,
shelter_481,Shelter,481,동양중학교 운동장,옥외대피소,서울특별시,동작구,서울특별시 동작구 흑석로9길 94(흑석동),37.509668,126.956276,952.0,,,
shelter_482,Shelter,482,상현중학교 운동장,옥외대피소,서울특별시,동작구,서울특별시 동작구 사당로2길 2-19 (상도동),37.493864,126.961116,2367.0,,,
shelter_483,Shelter,483,동작초등학교 운동장,옥외대피소,서울특별시,동작구,서울특별시 동작구 동작대로29길 214(사당동),37.49405,126.976881,2763.0,,,
shelter_484,Shelter,484,서울공업고등학교 운동장,옥외대피소,서울특별시,동작구,서울특별시 동작구 대방동1길 46(대방동),37.500877,126.922149,12822.0,,,
shelter_485,Shelter,485,충효어린이공원,옥외대피소,서울특별시,관악구,서울특별시 관악구 봉천동 1526-1,37.481033,126.941037,3294.0,,,
shelter_486,Shelter,486,도봉우체국휴게공원,옥외대피소,서울특별시,도봉구,서울특별시 도봉구 노해로 150(쌍문동),37.647887,127.027305,183.0,,,
shelter_487,Shelter,487,방학3동가로공원,옥외대피소,서울특별시,도봉구,서울특별시 도봉구 방학동 443,37.663412,127.027577,735.0,,,
shelter_488,Shelter,488,영등포중학교 운동장,옥외대피소,서울특별시,동작구,서울특별시 동작구 등용로8길 5(대방동),37.508125,126.932861,3361.0,,,
shelter_489,Shelter,489,면목5동 집하장 녹지대,옥외대피소,서울특별시,중랑구,서울특별시 중랑구 면목동 734-2,37.579846,127.079032,1592.0,,,
shelter_490,Shelter,490,사가정공원,옥외대피소,서울특별시,중랑구,서울특별시 중랑구 면목동 산 50-15,37.580271,127.094532,109653.0,,,
shelter_491,Shelter,491,상봉초등학교운동장,옥외대피소,서울특별시,중랑구,서울특별시 중랑구 동일로126가길 11(상봉동),37.598057,127.083689,4958.0,,,
shelter_492,Shelter,492,중흥초등학교운동장,옥외대피소,서울특별시,중랑구,서울특별시 중랑구 봉화산로 82(중화동),37.60148,127.084519,3030.0,,,
shelter_493,Shelter,493,장안중학교운동장,옥외대피소,서울특별시,중랑구,서울특별시 중랑구 동일로 780(중화동),37.600536,127.080802,5327.0,,,
shelter_494,Shelter,494,중랑중학교운동장,옥외대피소,서울특별시,중랑구,서울특별시 중랑구 동일로140길 33(중화동),37.604876,127.081314,5025.0,,,
shelter_495,Shelter,495,신화어린이공원,옥외대피소,서울특별시,관악구,서울특별시 관악구 신림동 408-10,37.476721,126.935703,710.0,,,
shelter_496,Shelter,496,북악중학교 운동장,옥외대피소,서울특별시,성북구,서울특별시 성북구 정릉로12길 41(정릉동),37.606576,127.001694,1844.0,,,
shelter_497,Shelter,497,석관중학교 운동장,옥외대피소,서울특별시,성북구,서울특별시 성북구 한천로 526(석관동),37.607656,127.066598,4760.0,,,
shelter_498,Shelter,498,무수어린이공원,옥외대피소,서울특별시,도봉구,서울특별시 도봉구 도봉동 585-2,37.68059,127.042679,1003.0,,,
shelter_499,Shelter,499,영본초등학교 운동장,옥외대피소,서울특별시,동작구,서울특별시 동작구 만양로12가길 69(본동),37.510688,126.948904,2683.0,,,
shelter_500,Shelter,500,장승중학교 운동장,옥외대피소,서울특별시,동작구,서울특별시 동작구 장승배기로10가길 25(상도동),37.503498,126.940754,2250.0,,,
shelter_501,Shelter,501,면목천로 녹지대,옥외대피소,서울특별시,중랑구,서울특별시 중랑구 면목동 1508-10,37.584347,127.083297,2183.0,,,
shelter_502,Shelter,502,신현초등학교운동장,옥외대피소,서울특별시,중랑구,서울특별시 중랑구 봉화산로 188(신내동),37.605498,127.094028,3600.0,,,
shelter_503,Shelter,503,서낭당근린공원,옥외대피소,서울특별시,강서구,서울특별시 강서구 공항대로43길 46(등촌동),37.558535,126.849963,10249.0,,,
shelter_504,Shelter,504,바탕골공원,옥외대피소,서울특별시,강서구,서울특별시 강서구 강서로45다길 74(화곡동),37.544541,126.834761,887.0,,,
shelter_505,Shelter,505,하마터어린이공원,옥외대피소,서울특별시,강서구,서울특별시 강서구 곰달래로36길 22(화곡동),37.530019,126.853649,1026.0,,,
shelter_506,Shelter,506,미리내공원,옥외대피소,서울특별시,강서구,서울특별시 강서구 화곡동 1008-32,37.547679,126.834761,968.0,,,
shelter_507,Shelter,507,두레어린이공원,옥외대피소,서울특별시,강서구,서울특별시 강서구 강서로8길 203(화곡동),37.531212,126.859337,986.0,,,
shelter_508,Shelter,508,달빛공원,옥외대피소,서울특별시,강서구,서울특별시 강서구 화곡동 783-1,37.531171,126.862933,976.0,,,
shelter_509,Shelter,509,모태어린이공원,옥외대피소,서울특별시,강서구,서울특별시 강서구 화곡동 892-17,37.529508,126.849515,1003.0,,,
shelter_510,Shelter,510,인헌고등학교 운동장,옥외대피소,서울특별시,관악구,서울특별시 관악구 인헌9길 74(봉천동),37.471886,126.969893,4283.0,,,
shelter_511,Shelter,511,삼성중학교 운동장,옥외대피소,서울특별시,관악구,서울특별시 관악구 신림로3가길 39-24 (신림동),37.468124,126.943074,9936.0,,,
shelter_512,Shelter,512,대조어린이공원,옥외대피소,서울특별시,은평구,서울특별시 은평구 연서로22길 9-30 (대조동),37.615471,126.919883,3294.0,,,
shelter_513,Shelter,513,안암초등학교 운동장,옥외대피소,서울특별시,성북구,서울특별시 성북구 고려대로7가길 39(안암동2가),37.587217,127.022604,2916.0,,,
shelter_514,Shelter,514,대일외국어고등학교 운동장,옥외대피소,서울특별시,성북구,서울특별시 성북구 서경로 116(정릉동),37.613344,127.013555,5088.0,,,
shelter_515,Shelter,515,계성고등학교 운동장,옥외대피소,서울특별시,성북구,서울특별시 성북구 길음로 63(길음동),37.607626,127.020879,3759.0,,,
shelter_516,Shelter,516,숭례초등학교 운동장,옥외대피소,서울특별시,성북구,서울특별시 성북구 종암로5길 14(종암동),37.594822,127.035051,3968.0,,,
shelter_517,Shelter,517,염경중학교 운동장,옥외대피소,서울특별시,강서구,서울특별시 강서구 양천로69길 35(염창동),37.554212,126.870897,2352.0,,,
shelter_518,Shelter,518,방화중학교 운동장,옥외대피소,서울특별시,강서구,서울특별시 강서구 개화동로27길 9(방화동),37.565165,126.806629,3030.0,,,
shelter_519,Shelter,519,등마루공원,옥외대피소,서울특별시,강서구,서울특별시 강서구 등촌동 641-5,37.556031,126.857348,969.0,,,
shelter_520,Shelter,520,큰별공원,옥외대피소,서울특별시,강서구,서울특별시 강서구 화곡동 46-41,37.544481,126.848938,1081.0,,,
shelter_521,Shelter,521,호돌이공원,옥외대피소,서울특별시,강서구,서울특별시 강서구 화곡동 906-26,37.528225,126.845992,661.0,,,
shelter_522,Shelter,522,수명어린이공원,옥외대피소,서울특별시,강서구,서울특별시 강서구 화곡로15길 18(화곡동),37.54084,126.83444,880.0,,,
shelter_523,Shelter,523,신림근린공원,옥외대피소,서울특별시,관악구,서울특별시 관악구 남부순환로152길 53(신림동),37.480801,126.917678,19802.0,,,
shelter_524,Shelter,524,신림중학교 운동장,옥외대피소,서울특별시,관악구,서울특별시 관악구 신림로 40(신림동),37.470533,126.94494,6599.0,,,
shelter_525,Shelter,525,허준근린공원,옥외대피소,서울특별시,강서구,서울특별시 강서구 허준로5길 42(가양동),37.567841,126.85241,29844.0,,,
shelter_526,Shelter,526,신미림초등학교 운동장,옥외대피소,서울특별시,구로구,서울특별시 구로구 신도림로 26(신도림동),37.506441,126.879586,2104.0,,,
shelter_527,Shelter,527,발산근린공원,옥외대피소,서울특별시,강서구,서울특별시 강서구 마곡중앙로 11(내발산동),37.554547,126.825484,17826.0,,,
shelter_528,Shelter,528,발음어린이공원,옥외대피소,서울특별시,강서구,서울특별시 강서구 강서로47길 61-21 (내발산동),37.55224,126.833179,914.0,,,
shelter_529,Shelter,529,신광명공원,옥외대피소,서울특별시,강서구,서울특별시 강서구 내발산동 761,37.547303,126.822932,8597.0,,,
shelter_530,Shelter,530,다솔어린이공원,옥외대피소,서울특별시,강서구,서울특별시 강서구 공항동 1361,37.554635,126.818349,1000.0,,,
shelter_531,Shelter,531,장미공원,옥외대피소,서울특별시,강서구,서울특별시 강서구 방화대로7다길 35-18 (공항동),37.556672,126.813826,500.0,,,
shelter_532,Shelter,532,새싹어린이공원,옥외대피소,서울특별시,강서구,서울특별시 강서구 방화동 583,37.569736,126.809396,3582.0,,,
shelter_533,Shelter,533,희망어린이공원(미루나무어린이공원),옥외대피소,서울특별시,강북구,서울특별시 강북구 수유동 193-1,37.640552,127.024448,841.0,,,
shelter_534,Shelter,534,흰구름공원(수유2동근린공원),옥외대피소,서울특별시,강북구,서울특별시 강북구 노해로23길 58(수유동),37.645717,127.020429,1092.0,,,
shelter_535,Shelter,535,영서초등학교 운동장,옥외대피소,서울특별시,구로구,서울특별시 구로구 도림로20길 57(구로동),37.488129,126.89519,2912.0,,,
shelter_536,Shelter,536,영림중학교 운동장,옥외대피소,서울특별시,구로구,서울특별시 구로구 가마산로27길 17(구로동),37.49772,126.890631,5080.0,,,
shelter_537,Shelter,537,영일초등학교 운동장,옥외대피소,서울특별시,구로구,서울특별시 구로구 남부순환로105길 218(가리봉동),37.485096,126.883735,3830.0,,,
shelter_538,Shelter,538,고산초등학교 운동장,옥외대피소,서울특별시,구로구,서울특별시 구로구 중앙로 6(고척동),37.499008,126.865599,2675.0,,,
shelter_539,Shelter,539,고척중학교 운동장,옥외대피소,서울특별시,구로구,서울특별시 구로구 중앙로3길 20(고척동),37.499776,126.861951,4897.0,,,
shelter_540,Shelter,540,고척고등학교 운동장,옥외대피소,서울특별시,구로구,서울특별시 구로구 중앙로15길 162(고척동),37.509087,126.852071,7282.0,,,
shelter_541,Shelter,541,우신고등학교 운동장,옥외대피소,서울특별시,구로구,서울특별시 구로구 부일로 917(궁동),37.494958,126.827157,11246.0,,,
shelter_542,Shelter,542,서울정진학교 운동장,옥외대피소,서울특별시,구로구,서울특별시 구로구 부일로9길 158(궁동),37.498271,126.822072,4649.0,,,
shelter_543,Shelter,543,세종과학고등학교 운동장,옥외대피소,서울특별시,구로구,서울특별시 구로구 오리로21길 79(궁동),37.497205,126.827039,3207.0,,,
shelter_544,Shelter,544,고려대학사범대학부속고등학교 운동장,옥외대피소,서울특별시,성북구,서울특별시 성북구 정릉동 산 1-2,37.608414,127.00209,16119.0,,,
shelter_545,Shelter,545,효제초등학교 운동장,옥외대피소,서울특별시,종로구,서울특별시 종로구 대학로 12(효제동),37.572629,127.003039,5794.0,,,
shelter_546,Shelter,546,반석어린이공원,옥외대피소,서울특별시,도봉구,서울특별시 도봉구 창동 354,37.647101,127.041245,2597.0,,,
shelter_547,Shelter,547,월천공원,옥외대피소,서울특별시,도봉구,서울특별시 도봉구 창동 28,37.647561,127.050847,10712.0,,,
shelter_548,Shelter,548,용마폭포공원,옥외대피소,서울특별시,중랑구,서울특별시 중랑구 용마산로 250-12 (면목동),37.57329,127.090871,270.0,,,
shelter_549,Shelter,549,원묵중학교운동장,옥외대피소,서울특별시,중랑구,서울특별시 중랑구 신내로23길 57(묵동),37.617799,127.085015,3936.0,,,
shelter_550,Shelter,550,원묵고등학교운동장,옥외대피소,서울특별시,중랑구,서울특별시 중랑구 숙선옹주로 82(묵동),37.615519,127.086353,2816.0,,,
shelter_551,Shelter,551,혜원여자고등학교운동장,옥외대피소,서울특별시,중랑구,서울특별시 중랑구 봉우재로58길 39(망우동),37.593723,127.096603,5866.0,,,
shelter_552,Shelter,552,원당근린공원,옥외대피소,서울특별시,강서구,서울특별시 강서구 강서로56길 49(등촌동),37.559757,126.842062,10096.0,,,
shelter_553,Shelter,553,새나라공원,옥외대피소,서울특별시,강서구,서울특별시 강서구 등촌동 707-2,37.561555,126.852055,1563.0,,,
shelter_554,Shelter,554,솔뫼공원,옥외대피소,서울특별시,강서구,서울특별시 강서구 가로공원로77길 30(화곡동),37.537864,126.838431,2097.0,,,
shelter_555,Shelter,555,까치어린이공원,옥외대피소,서울특별시,강서구,서울특별시 강서구 화곡동 354-14,37.533424,126.841893,1193.0,,,
shelter_556,Shelter,556,골말어린이공원,옥외대피소,서울특별시,강서구,서울특별시 강서구 곰달래로45길 17(화곡동),37.533243,126.856108,977.0,,,
shelter_557,Shelter,557,화원어린이공원,옥외대피소,서울특별시,구로구,서울특별시 구로구 벚꽃로 490(구로동),37.497719,126.880285,3759.0,,,
shelter_558,Shelter,558,구로근린공원,옥외대피소,서울특별시,구로구,서울특별시 구로구 가마산로25길 21(구로동),37.496854,126.889712,1853.0,,,
shelter_559,Shelter,559,경인고등학교 운동장,옥외대피소,서울특별시,구로구,서울특별시 구로구 경인로46길 31(고척동),37.496354,126.865858,4071.0,,,
shelter_560,Shelter,560,고척근린공원 축구장,옥외대피소,서울특별시,구로구,서울특별시 구로구 고척로45길 39(고척동),37.505988,126.851759,6690.0,,,
shelter_561,Shelter,561,능말공원,옥외대피소,서울특별시,중랑구,서울특별시 중랑구 신내동 817-5,37.615634,127.107267,19101.0,,,
shelter_562,Shelter,562,정문학교 운동장,옥외대피소,서울특별시,관악구,서울특별시 관악구 난향3길 31(신림동),37.461484,126.916138,1699.0,,,
shelter_563,Shelter,563,삼성고등학교 운동장,옥외대피소,서울특별시,관악구,서울특별시 관악구 신림로 41(신림동),37.469783,126.943639,8580.0,,,
shelter_564,Shelter,564,새싹어린이공원,옥외대피소,서울특별시,강북구,서울특별시 강북구 수유동 134-40,37.636118,127.019559,644.0,,,
shelter_565,Shelter,565,능산공원,옥외대피소,서울특별시,중랑구,서울특별시 중랑구 신내동 317-2,37.611771,127.097348,388.0,,,
shelter_566,Shelter,566,봉화중학교운동장,옥외대피소,서울특별시,중랑구,서울특별시 중랑구 망우로70길 89(망우동),37.596635,127.103758,2754.0,,,
shelter_567,Shelter,567,영란여자중학교운동장,옥외대피소,서울특별시,중랑구,서울특별시 중랑구 망우로73길 56(망우동),37.603522,127.104478,7085.0,,,
shelter_568,Shelter,568,성동구보건소 주차장,옥외대피소,서울특별시,성동구,서울특별시 성동구 마장로23길 10(홍익동),37.567087,127.032952,570.0,,,
shelter_569,Shelter,569,무학봉근린공원,옥외대피소,서울특별시,성동구,서울특별시 성동구 하왕십리동 1050-2,37.562399,127.026565,28845.0,,,
shelter_570,Shelter,570,마장중학교 운동장,옥외대피소,서울특별시,성동구,서울특별시 성동구 마장로35나길 31(마장동),37.568567,127.041272,3280.0,,,
shelter_571,Shelter,571,사근초등학교 운동장,옥외대피소,서울특별시,성동구,서울특별시 성동구 사근동11길 16(사근동),37.562529,127.04795,2200.0,,,
shelter_572,Shelter,572,한양여자대학교 운동장,옥외대피소,서울특별시,성동구,서울특별시 성동구 사근동8길 24(사근동),37.558908,127.04759,2270.0,,,
shelter_573,Shelter,573,금호근린공원,옥외대피소,서울특별시,성동구,서울특별시 성동구 금호산9길 9(금호동3가),37.549814,127.019062,13467.0,,,
shelter_574,Shelter,574,옥수초등학교 운동장,옥외대피소,서울특별시,성동구,서울특별시 성동구 금호로1길 25(금호동4가),37.545934,127.022106,2521.0,,,
shelter_575,Shelter,575,달맞이공원,옥외대피소,서울특별시,성동구,서울특별시 성동구 옥수동 산 1-1,37.544554,127.020121,9246.0,,,
shelter_576,Shelter,576,경일고등학교 운동장,옥외대피소,서울특별시,성동구,서울특별시 성동구 성수일로 27(성수동1가),37.543256,127.04775,4240.0,,,
shelter_577,Shelter,577,경동초등학교 운동장,옥외대피소,서울특별시,성동구,서울특별시 성동구 성수일로 34(성수동1가),37.542727,127.050888,2849.0,,,
shelter_578,Shelter,578,성원중학교 운동장,옥외대피소,서울특별시,성동구,서울특별시 성동구 성덕정9가길 13(성수동2가),37.539229,127.052368,3435.0,,,
shelter_579,Shelter,579,국지어린이공원,옥외대피소,서울특별시,관악구,서울특별시 관악구 봉천동 635-429,37.489885,126.940673,1837.0,,,
shelter_580,Shelter,580,관악중학교 운동장,옥외대피소,서울특별시,관악구,서울특별시 관악구 남부순환로237길 60(봉천동),37.480104,126.961471,7365.0,,,
shelter_581,Shelter,581,밤골어린이공원,옥외대피소,서울특별시,관악구,서울특별시 관악구 인헌3가길 8(봉천동),37.474081,126.967251,1118.0,,,
shelter_582,Shelter,582,남강중학교 운동장,옥외대피소,서울특별시,관악구,서울특별시 관악구 난곡로34길 80(신림동),37.471537,126.924137,9914.0,,,
shelter_583,Shelter,583,혜화여자고등학교 운동장,옥외대피소,서울특별시,강북구,서울특별시 강북구 인수봉로 127(수유동),37.630624,127.013177,2951.0,,,
shelter_584,Shelter,584,송정체육공원,옥외대피소,서울특별시,성동구,서울특별시 성동구 중랑천동자전거길 366(송정동),37.552877,127.066558,3350.0,,,
shelter_585,Shelter,585,독서당공원,옥외대피소,서울특별시,성동구,서울특별시 성동구 금호동1가 산 37-7,37.550659,127.029097,2852.0,,,
shelter_586,Shelter,586,배재고등학교 운동장,옥외대피소,서울특별시,강동구,서울특별시 강동구 고덕로 227(고덕동),37.555419,127.151957,56521.0,,,
shelter_587,Shelter,587,백석중학교 운동장,옥외대피소,서울특별시,강서구,서울특별시 강서구 등촌로51나길 35(등촌동),37.548073,126.859342,1658.0,,,
shelter_588,Shelter,588,송원초등학교 운동장,옥외대피소,서울특별시,성동구,서울특별시 성동구 동일로43길 9(송정동),37.553907,127.069247,738.0,,,
shelter_589,Shelter,589,분토골어린이공원,옥외대피소,서울특별시,서초구,서울특별시 서초구 서초동 1627-4,37.488375,127.017458,587.0,,,
shelter_590,Shelter,590,용허리근린공원,옥외대피소,서울특별시,서초구,서울특별시 서초구 서초동 1324-1,37.494286,127.02328,4580.0,,,
shelter_591,Shelter,591,코아어린이공원,옥외대피소,서울특별시,서초구,서울특별시 서초구 잠원동 72-4,37.509037,127.004037,1300.0,,,
shelter_592,Shelter,592,영동중학교 운동장,옥외대피소,서울특별시,서초구,서울특별시 서초구 성촌길 14(우면동),37.465666,127.025644,2353.0,,,
shelter_593,Shelter,593,영락고등학교 운동장,옥외대피소,서울특별시,관악구,서울특별시 관악구 청룡16길 25(봉천동),37.47628,126.944307,12249.0,,,
shelter_594,Shelter,594,원당어린이공원,옥외대피소,서울특별시,관악구,서울특별시 관악구 봉천동 196-2,37.474854,126.963437,1647.0,,,
shelter_595,Shelter,595,새들어린이공원,옥외대피소,서울특별시,관악구,서울특별시 관악구 신림동 1441-42,37.488668,126.925735,810.0,,,
shelter_596,Shelter,596,서원어린이공원,옥외대피소,서울특별시,관악구,서울특별시 관악구 서원3길 10(신림동),37.476716,126.933421,2110.0,,,
shelter_597,Shelter,597,청룡어린이공원,옥외대피소,서울특별시,서초구,서울특별시 서초구 반포동 86-1,37.495872,126.999696,1010.0,,,
shelter_598,Shelter,598,백범김구기념관,옥외대피소,서울특별시,용산구,서울특별시 용산구 임정로 26(효창동),37.544739,126.959789,1492.0,,,
shelter_599,Shelter,599,솔밭어린이공원,옥외대피소,서울특별시,용산구,서울특별시 용산구 한강로1가 30-3,37.537302,126.973648,2090.0,,,
shelter_600,Shelter,600,구룡중학교 운동장,옥외대피소,서울특별시,강남구,서울특별시 강남구 선릉로 103(개포동),37.485693,127.05661,5820.0,,,
shelter_601,Shelter,601,개포서근린공원,옥외대피소,서울특별시,강남구,서울특별시 강남구 개포동 180,37.488824,127.063797,1500.0,,,
shelter_602,Shelter,602,이태원마을숲 소공원,옥외대피소,서울특별시,용산구,서울특별시 용산구 이태원동 260-87,37.541264,126.991538,661.0,,,
shelter_232,Shelter,232,종암 5-1 어린이 공원,옥외대피소,서울특별시,성북구,서울특별시 성북구 종암동 134-3,37.599639,127.03663,1965.0,,,
shelter_233,Shelter,233,홍익대학교 사범대학 부속 중-고등학교 운동장,옥외대피소,서울특별시,성북구,서울특별시 성북구 성북로14가길 23(성북동),37.594074,127.003655,9518.0,,,
shelter_234,Shelter,234,면목중학교운동장,옥외대피소,서울특별시,중랑구,서울특별시 중랑구 용마산로70길 37(면목동),37.582888,127.095754,4197.0,,,
shelter_235,Shelter,235,독산근린공원,옥외대피소,서울특별시,금천구,서울특별시 금천구 범안로 1096(독산동),37.4631,126.8847,19100.0,,,
shelter_236,Shelter,236,해태공원,옥외대피소,서울특별시,금천구,서울특별시 금천구 시흥동 871-24,37.4578,126.9018,962.0,,,
shelter_237,Shelter,237,진달래공원,옥외대피소,서울특별시,금천구,서울특별시 금천구 시흥동 970-3,37.4348,126.9049,298.0,,,
shelter_238,Shelter,238,비둘기공원,옥외대피소,서울특별시,금천구,서울특별시 금천구 시흥동 947-4,37.4415,126.9062,298.0,,,
shelter_239,Shelter,239,꾸러기공원,옥외대피소,서울특별시,금천구,서울특별시 금천구 시흥동 943-16,37.4432,126.9059,165.0,,,
shelter_240,Shelter,240,벌리어린이공원,옥외대피소,서울특별시,강북구,서울특별시 강북구 번동 240,37.627576,127.044429,4083.5,,,
shelter_241,Shelter,241,송월어린이공원,옥외대피소,서울특별시,강북구,서울특별시 강북구 미아동 89-6,37.616101,127.032134,807.0,,,
shelter_242,Shelter,242,우이초등학교 운동장,옥외대피소,서울특별시,강북구,서울특별시 강북구 삼양로99길 36(수유동),37.638359,127.014358,1105.0,,,
shelter_243,Shelter,243,동망봉 어린이 공원,옥외대피소,서울특별시,성북구,서울특별시 성북구 보문사길 30(보문동3가),37.583682,127.016993,1355.0,,,
shelter_244,Shelter,244,서울인수초등학교운동장,옥외대피소,서울특별시,강북구,서울특별시 강북구 인수봉로 269(수유동),37.642679,127.010237,1562.0,,,
shelter_245,Shelter,245,삼양초등학교 운동장,옥외대피소,서울특별시,강북구,서울특별시 강북구 삼양로49길 17(미아동),37.623429,127.016787,3315.0,,,
shelter_246,Shelter,246,도하공원,옥외대피소,서울특별시,금천구,서울특별시 금천구 독산동 1149,37.4587,126.8953,3155.0,,,
shelter_247,Shelter,247,논골어린이공원,옥외대피소,서울특별시,강북구,서울특별시 강북구 덕릉로41길 92(번동),37.638382,127.028046,845.0,,,
shelter_248,Shelter,248,천마공원,옥외대피소,서울특별시,송파구,서울특별시 송파구 성내천로35길 53(마천동),37.500189,127.160241,7311.0,,,
shelter_249,Shelter,249,수송중학교운동장,옥외대피소,서울특별시,강북구,서울특별시 강북구 한천로122길 21(번동),37.636268,127.033321,4071.0,,,
shelter_250,Shelter,250,중랑초등학교운동장,옥외대피소,서울특별시,중랑구,서울특별시 중랑구 봉우재로6길 26(면목동),37.589292,127.075746,2150.0,,,
shelter_251,Shelter,251,신내근린공원,옥외대피소,서울특별시,중랑구,서울특별시 중랑구 신내동 652,37.613747,127.089189,34016.0,,,
shelter_252,Shelter,252,면목초등학교운동장,옥외대피소,서울특별시,중랑구,서울특별시 중랑구 면목로 434(면목동),37.591047,127.087563,2177.0,,,
shelter_253,Shelter,253,중화중학교운동장,옥외대피소,서울특별시,중랑구,서울특별시 중랑구 용마산로 364(면목동),37.584232,127.095177,2751.0,,,
shelter_254,Shelter,254,동원초등학교운동장,옥외대피소,서울특별시,중랑구,서울특별시 중랑구 송림길 114(망우동),37.604953,127.104845,4393.0,,,
shelter_255,Shelter,255,망우초등학교운동장,옥외대피소,서울특별시,중랑구,서울특별시 중랑구 망우로72길 49(망우동),37.598225,127.103358,2800.0,,,
shelter_256,Shelter,256,서대문독립공원,옥외대피소,서울특별시,서대문구,서울특별시 서대문구 독립문공원길 80(현저동),37.574107,126.956409,103713.0,,,
shelter_257,Shelter,257,성북초등학교 운동장,옥외대피소,서울특별시,성북구,서울특별시 성북구 성북로 102-10 (성북동),37.593559,126.998239,5045.0,,,
shelter_258,Shelter,258,명지고등학교 운동장,옥외대피소,서울특별시,서대문구,서울특별시 서대문구 명지2길 56(홍은동),37.584076,126.927082,3624.0,,,
shelter_259,Shelter,259,동작고등학교 운동장,옥외대피소,서울특별시,동작구,서울특별시 동작구 솔밭로 51(사당동),37.482083,126.96553,3246.0,,,
shelter_260,Shelter,260,응암초등학교 운동장 ,옥외대피소,서울특별시,은평구,서울특별시 은평구 가좌로6길 20(응암동),37.588381,126.921224,2000.0,,,
shelter_261,Shelter,261,신사초등학교 운동장,옥외대피소,서울특별시,은평구,서울특별시 은평구 가좌로 275-2 (신사동),37.592731,126.912387,1555.0,,,
shelter_262,Shelter,262,당서초등학교 운동장,옥외대피소,서울특별시,영등포구,서울특별시 영등포구 당산로 187(당산동5가),37.531467,126.899289,3540.0,,,
shelter_263,Shelter,263,은평고등학교 운동장,옥외대피소,서울특별시,은평구,서울특별시 은평구 갈현로15길 51(구산동),37.608981,126.906116,1350.0,,,
shelter_264,Shelter,264,감리교신학대 운동장,옥외대피소,서울특별시,서대문구,서울특별시 서대문구 냉천동 31,37.567195,126.963036,846.0,,,
shelter_265,Shelter,265,한강미디어고등학교 운동장,옥외대피소,서울특별시,영등포구,서울특별시 영등포구 선유로55길 22(양평동4가),37.538903,126.897267,2282.6,,,
shelter_266,Shelter,266,구로중학교 운동장,옥외대피소,서울특별시,구로구,서울특별시 구로구 구로중앙로 48(구로동),37.494272,126.890871,5715.0,,,
shelter_267,Shelter,267,남사초등학교 운동장,옥외대피소,서울특별시,동작구,서울특별시 동작구 동작대로13길 22(사당동),37.482242,126.978867,4274.0,,,
shelter_268,Shelter,268,논현초등학교 운동장,옥외대피소,서울특별시,강남구,서울특별시 강남구 논현동 168,37.508142,127.026206,3960.0,,,
shelter_269,Shelter,269,공덕초등학교 운동장,옥외대피소,서울특별시,마포구,서울특별시 마포구 만리재옛길 13(공덕동),37.545785,126.954124,5141.0,,,
shelter_270,Shelter,270,안산초등학교 운동장,옥외대피소,서울특별시,서대문구,서울특별시 서대문구 통일로 321(홍제동),37.57938,126.951601,1931.0,,,
shelter_271,Shelter,271,장훈고등학교 운동장,옥외대피소,서울특별시,영등포구,서울특별시 영등포구 영등포로64길 26(신길동),37.513615,126.915551,7167.6,,,
shelter_272,Shelter,272,영남중학교 운동장,옥외대피소,서울특별시,영등포구,서울특별시 영등포구 대림로31나길 17(대림동),37.497418,126.896038,6155.9,,,
shelter_273,Shelter,273,여의도여자고등학교 운동장,옥외대피소,서울특별시,영등포구,서울특별시 영등포구 국제금융로7가길 13(여의도동),37.522576,126.934909,4079.0,,,
shelter_274,Shelter,274,신대림초등학교 운동장,옥외대피소,서울특별시,영등포구,서울특별시 영등포구 대림로8길 25(대림동),37.491853,126.90589,7412.0,,,
shelter_275,Shelter,275,윤중초등학교 운동장,옥외대피소,서울특별시,영등포구,서울특별시 영등포구 여의나루로2길 14(여의도동),37.519549,126.923107,6586.0,,,
shelter_276,Shelter,276,우신초등학교 운동장,옥외대피소,서울특별시,영등포구,서울특별시 영등포구 신길로 190(신길동),37.509336,126.912131,5236.1,,,
shelter_277,Shelter,277,대동초등학교 운동장,옥외대피소,서울특별시,영등포구,서울특별시 영등포구 대림로21길 6(대림동),37.493281,126.900072,6378.0,,,
shelter_278,Shelter,278,고은초등학교 운동장,옥외대피소,서울특별시,서대문구,서울특별시 서대문구 모래내로 441(홍제동),37.584714,126.943621,954.0,,,
shelter_279,Shelter,279,양화중학교 운동장,옥외대피소,서울특별시,영등포구,서울특별시 영등포구 당산로 56(문래동3가),37.519291,126.89636,2343.6,,,
shelter_280,Shelter,280,명지전문대 운동장,옥외대피소,서울특별시,서대문구,서울특별시 서대문구 가좌로 134(홍은동),37.583792,126.925305,4556.0,,,
shelter_281,Shelter,281,명지중학교 운동장,옥외대피소,서울특별시,서대문구,서울특별시 서대문구 명지2길 56(홍은동),37.58402,126.927102,738.0,,,
shelter_282,Shelter,282,도림초등학교 운동장,옥외대피소,서울특별시,영등포구,서울특별시 영등포구 가마산로65길 22(신길동),37.508296,126.90748,4413.6,,,
shelter_283,Shelter,283,신남성초등학교 운동장,옥외대피소,서울특별시,동작구,서울특별시 동작구 사당로 146(사당동),37.488503,126.965277,4052.0,,,
shelter_284,Shelter,284,문창초등학교 운동장,옥외대피소,서울특별시,동작구,서울특별시 동작구 신대방2길 14(신대방동),37.489171,126.914363,3044.0,,,
shelter_285,Shelter,285,신도봉중학교 운동장,옥외대피소,서울특별시,도봉구,서울특별시 도봉구 도봉로115길 16(쌍문동),37.649281,127.033395,183.0,,,
shelter_286,Shelter,286,창원초등학교 운동장,옥외대피소,서울특별시,도봉구,서울특별시 도봉구 해등로 103(창동),37.652104,127.040713,4163.0,,,
shelter_287,Shelter,287,창림초등학교운동장,옥외대피소,서울특별시,도봉구,서울특별시 도봉구 덕릉로63길 46(창동),37.643152,127.041796,183.0,,,
shelter_288,Shelter,288,흑석초등학교 운동장,옥외대피소,서울특별시,동작구,서울특별시 동작구 현충로 87(흑석동),37.508658,126.965093,2440.0,,,
shelter_289,Shelter,289,연희중학교 운동장,옥외대피소,서울특별시,서대문구,서울특별시 서대문구 증가로 170(남가좌동),37.579123,126.918913,3290.0,,,
shelter_290,Shelter,290,대신초등학교 운동장,옥외대피소,서울특별시,서대문구,서울특별시 서대문구 이화여대2길 27(대현동),37.55768,126.947459,1011.0,,,
shelter_291,Shelter,291,길음초등학교 운동장,옥외대피소,서울특별시,성북구,서울특별시 성북구 길음로 142(길음동),37.6132,127.017084,3479.0,,,
shelter_292,Shelter,292,선유고등학교 운동장,옥외대피소,서울특별시,영등포구,서울특별시 영등포구 선유로 227(양평동4가),37.53339,126.89507,2055.7,,,
shelter_293,Shelter,293,국사봉중학교운동장,옥외대피소,서울특별시,동작구,서울특별시 동작구 양녕로20길 20(상도동),37.493777,126.945071,3062.0,,,
shelter_294,Shelter,294,삼릉초등학교 운동장,옥외대피소,서울특별시,강남구,서울특별시 강남구 봉은사로63길 22(삼성동),37.512774,127.047155,2218.0,,,
shelter_295,Shelter,295,도성초등학교 운동장,옥외대피소,서울특별시,강남구,서울특별시 강남구 역삼로 313(역삼동),37.500667,127.049165,3800.0,,,
shelter_296,Shelter,296,대모초등학교 운동장,옥외대피소,서울특별시,강남구,서울특별시 강남구 일원동 736,37.481077,127.086048,2727.0,,,
shelter_297,Shelter,297,유한공업고등학교 운동장,옥외대피소,서울특별시,구로구,서울특별시 구로구 경인로 8(항동),37.488029,126.823629,6259.0,,,
shelter_298,Shelter,298,중앙여자고등학교 운동장,옥외대피소,서울특별시,서대문구,서울특별시 서대문구 북아현로11가길 7(북아현동),37.562144,126.95248,5150.0,,,
shelter_299,Shelter,299,방학중학교 운동장,옥외대피소,서울특별시,도봉구,서울특별시 도봉구 시루봉로 188(방학동),37.665443,127.031764,6742.0,,,
shelter_300,Shelter,300,은진초등학교 운동장,옥외대피소,서울특별시,은평구,서울특별시 은평구 진관1로 21-20 (진관동),37.633021,126.921146,2000.0,,,
shelter_301,Shelter,301,숭인초등학교 운동장,옥외대피소,서울특별시,성북구,서울특별시 성북구 오패산로16길 37(하월곡동),37.608916,127.038806,2042.0,,,
shelter_302,Shelter,302,연희초등학교 운동장,옥외대피소,서울특별시,서대문구,서울특별시 서대문구 연희로 136(연희동),37.569069,126.933561,1257.0,,,
shelter_303,Shelter,303,본동초등학교 운동장,옥외대피소,서울특별시,동작구,서울특별시 동작구 노량진로26길 16-40 (본동),37.510282,126.953744,1400.0,,,
shelter_304,Shelter,304,남성초등학교 운동장,옥외대피소,서울특별시,동작구,서울특별시 동작구 사당로23길 57-14 (사당동),37.484244,126.976303,3465.0,,,
shelter_305,Shelter,305,대림초등학교운동장,옥외대피소,서울특별시,동작구,서울특별시 동작구 대방동1길 22(대방동),37.500569,126.926168,1778.0,,,
shelter_306,Shelter,306,홍제초등학교 운동장,옥외대피소,서울특별시,서대문구,서울특별시 서대문구 홍은중앙로 13(홍은동),37.592803,126.944278,639.0,,,
shelter_307,Shelter,307,서일초등학교 운동장,옥외대피소,서울특별시,서초구,서울특별시 서초구 남부순환로339길 38(서초동),37.484607,127.022712,3210.0,,,
shelter_308,Shelter,308,서이초등학교 운동장,옥외대피소,서울특별시,서초구,서울특별시 서초구 서운로 35(서초동),37.49112,127.025936,16830.0,,,
shelter_309,Shelter,309,서울고등학교 운동장,옥외대피소,서울특별시,서초구,서울특별시 서초구 효령로 197(서초동),37.48414,127.005762,73592.0,,,
shelter_310,Shelter,310,서일중학교 운동장,옥외대피소,서울특별시,서초구,서울특별시 서초구 서운로21길 2(서초동),37.498687,127.022581,6464.0,,,
shelter_311,Shelter,311,신동초등학교 운동장,옥외대피소,서울특별시,서초구,서울특별시 서초구 나루터로 15(잠원동),37.516736,127.0119,10829.0,,,
shelter_312,Shelter,312,반포고등학교 운동장,옥외대피소,서울특별시,서초구,서울특별시 서초구 고무래로 71(반포동),37.501767,127.016788,8780.0,,,
shelter_313,Shelter,313,잠원초등학교 운동장,옥외대피소,서울특별시,서초구,서울특별시 서초구 신반포로16길 15-25 (반포동),37.501364,126.998186,14058.0,,,
shelter_314,Shelter,314,신반포중학교 운동장,옥외대피소,서울특별시,서초구,서울특별시 서초구 신반포로19길 26(반포동),37.505596,126.996153,14926.0,,,
shelter_315,Shelter,315,반원초등학교 운동장,옥외대피소,서울특별시,서초구,서울특별시 서초구 잠원로3길 28(잠원동),37.509737,127.004053,5100.0,,,
shelter_316,Shelter,316,방배중학교 운동장,옥외대피소,서울특별시,서초구,서울특별시 서초구 동광로 144(반포동),37.494591,126.99844,6169.0,,,
shelter_317,Shelter,317,언북초등학교 운동장,옥외대피소,서울특별시,강남구,서울특별시 강남구 삼성로135길 42(청담동),37.520082,127.046262,4617.0,,,
shelter_318,Shelter,318,소의초등학교 운동장,옥외대피소,서울특별시,마포구,서울특별시 마포구 마포대로24길 42(아현동),37.552146,126.961153,2722.0,,,
shelter_319,Shelter,319,방일초등학교 운동장,옥외대피소,서울특별시,서초구,서울특별시 서초구 방배로18길 52(방배동),37.48526,126.9979,12294.0,,,
shelter_320,Shelter,320,남태령어린이공원,옥외대피소,서울특별시,서초구,서울특별시 서초구 방배동 2956-4,37.466169,126.988618,1208.0,,,
shelter_321,Shelter,321,방배초등학교 운동장,옥외대피소,서울특별시,서초구,서울특별시 서초구 방배중앙로13길 26(방배동),37.487124,126.987454,9734.0,,,
shelter_322,Shelter,322,서문여자중학교 운동장,옥외대피소,서울특별시,서초구,서울특별시 서초구 동광로12길 84(방배동),37.488973,126.985081,22755.0,,,
shelter_323,Shelter,323,양재근린공원,옥외대피소,서울특별시,서초구,서울특별시 서초구 양재동 311,37.471502,127.042646,32582.0,,,
shelter_324,Shelter,324,마포초등학교 운동장,옥외대피소,서울특별시,마포구,서울특별시 마포구 도화2길 64(도화동),37.538583,126.949093,2077.0,,,
shelter_325,Shelter,325,신성초등학교 운동장,옥외대피소,서울특별시,관악구,서울특별시 관악구 신림로 114(신림동),37.47148,126.936852,6052.0,,,
shelter_326,Shelter,326,신석초등학교 운동장,옥외대피소,서울특별시,마포구,서울특별시 마포구 대흥로 33(신수동),37.544016,126.937938,1355.0,,,
shelter_327,Shelter,327,신수중학교 운동장,옥외대피소,서울특별시,마포구,서울특별시 마포구 신수로 49(신수동),37.5454,126.9337,4138.0,,,
shelter_328,Shelter,328,와우어린이공원,옥외대피소,서울특별시,마포구,서울특별시 마포구 독막로19길 20-13 (상수동),37.549,126.9253,3166.0,,,
shelter_329,Shelter,329,망원초등학교 운동장,옥외대피소,서울특별시,마포구,서울특별시 마포구 방울내로5길 28(망원동),37.560533,126.900983,1389.0,,,
shelter_330,Shelter,330,미동초등학교 운동장,옥외대피소,서울특별시,서대문구,서울특별시 서대문구 충정로 52(미근동),37.562845,126.965894,1529.0,,,
shelter_331,Shelter,331,금화초등학교 운동장,옥외대피소,서울특별시,서대문구,서울특별시 서대문구 통일로 165(천연동),37.568557,126.96323,886.0,,,
shelter_332,Shelter,332,삼광초등학교 운동장,옥외대피소,서울특별시,용산구,서울특별시 용산구 두텁바위로1나길 19(후암동),37.546898,126.97662,3328.0,,,
shelter_333,Shelter,333,아현중학교 운동장,옥외대피소,서울특별시,마포구,서울특별시 마포구 마포대로 247(아현동),37.556405,126.957183,4596.0,,,
shelter_334,Shelter,334,청두어린이공원,옥외대피소,서울특별시,서초구,서울특별시 서초구 방배동 463-14,37.480618,126.985,1049.0,,,
shelter_335,Shelter,335,용강초등학교 운동장 ,옥외대피소,서울특별시,마포구,서울특별시 마포구 백범로17길 9(대흥동),37.5491,126.9441,3588.0,,,
shelter_336,Shelter,336,와우근린공원,옥외대피소,서울특별시,마포구,서울특별시 마포구 창전동 3-181,37.553,126.9301,68623.0,,,
shelter_337,Shelter,337,서교초등학교 운동장,옥외대피소,서울특별시,마포구,서울특별시 마포구 와우산로23길 20-27 (서교동),37.55474,126.924712,3465.0,,,
shelter_338,Shelter,338,경성고등학교 운동장,옥외대피소,서울특별시,마포구,서울특별시 마포구 성미산로 111(연남동),37.563111,126.919445,11801.0,,,
shelter_339,Shelter,339,성서중학교 운동장 ,옥외대피소,서울특별시,마포구,서울특별시 마포구 성산로4길 42(성산동),37.5631,126.9084,2795.0,,,
shelter_340,Shelter,340,덕성여자대학교 운동장,옥외대피소,서울특별시,도봉구,서울특별시 도봉구 삼양로144길 33(쌍문동),37.649934,127.017703,71693.0,,,
shelter_341,Shelter,341,이화금란중학교 운동장,옥외대피소,서울특별시,서대문구,서울특별시 서대문구 성산로 520(대신동),37.5626,126.9449,8514.0,,,
shelter_342,Shelter,342,연세대학교 운동장,옥외대피소,서울특별시,서대문구,서울특별시 서대문구 연세로 50(신촌동),37.562213,126.933436,12645.0,,,
shelter_343,Shelter,343,장위초등학교 운동장,옥외대피소,서울특별시,성북구,서울특별시 성북구 장월로8가길 41(장위동),37.611671,127.050028,3462.0,,,
shelter_344,Shelter,344,은평초등학교 운동장,옥외대피소,서울특별시,은평구,서울특별시 은평구 은평로 239(녹번동),37.601627,126.934441,14908.0,,,
shelter_345,Shelter,345,동명여자고등학교 운동장,옥외대피소,서울특별시,은평구,서울특별시 은평구 통일로 793(대조동),37.613907,126.923967,30554.0,,,
shelter_346,Shelter,346,학동초등학교 운동장,옥외대피소,서울특별시,강남구,서울특별시 강남구 선릉로115길 42(논현동),37.512036,127.039891,1820.0,,,
shelter_347,Shelter,347,석계초등학교 운동장,옥외대피소,서울특별시,성북구,서울특별시 성북구 한천로58길 273(석관동),37.6081,127.069672,2890.0,,,
shelter_348,Shelter,348,석관고등학교 운동장,옥외대피소,서울특별시,성북구,서울특별시 성북구 한천로70길 30(석관동),37.608988,127.06664,6064.0,,,
shelter_349,Shelter,349,영등포초등학교 운동장,옥외대피소,서울특별시,영등포구,서울특별시 영등포구 경인로 756(문래동1가),37.512628,126.898366,5661.7,,,
shelter_350,Shelter,350,연가초등학교 운동장,옥외대피소,서울특별시,서대문구,서울특별시 서대문구 증가로12가길 49-50 (남가좌동),37.579733,126.918101,2401.0,,,
shelter_351,Shelter,351,영신초등학교 운동장,옥외대피소,서울특별시,영등포구,서울특별시 영등포구 도신로60길 23(신길동),37.509711,126.91819,3195.2,,,
shelter_352,Shelter,352,대방초등학교 운동장,옥외대피소,서울특별시,영등포구,서울특별시 영등포구 여의대방로35길 14(신길동),37.502377,126.918912,3000.0,,,
shelter_353,Shelter,353,영등포고등학교 운동장,옥외대피소,서울특별시,동작구,서울특별시 동작구 등용로8길 5(대방동),37.507989,126.933834,5241.0,,,
shelter_354,Shelter,354,도봉중학교 운동장,옥외대피소,서울특별시,도봉구,서울특별시 도봉구 마들로 671(도봉동),37.670191,127.045554,3375.0,,,
shelter_355,Shelter,355,강남초등학교 운동장,옥외대피소,서울특별시,동작구,서울특별시 동작구 강남초등길 15(상도1동),37.505908,126.952702,4100.0,,,
shelter_356,Shelter,356,은로초등학교 운동장,옥외대피소,서울특별시,동작구,서울특별시 동작구 서달로 115(흑석동),37.503732,126.960177,3654.0,,,
shelter_357,Shelter,357,남성중학교 운동장,옥외대피소,서울특별시,동작구,서울특별시 동작구 남부순환로269길 166(사당동),37.478723,126.972369,2450.0,,,
shelter_358,Shelter,358,방학초등학교 운동장,옥외대피소,서울특별시,도봉구,서울특별시 도봉구 도당로9길 34(방학동),37.663672,127.03234,436.0,,,
shelter_359,Shelter,359,이화금란고등학교 운동장,옥외대피소,서울특별시,서대문구,서울특별시 서대문구 성산로 560(대신동),37.565681,126.947154,3288.0,,,
shelter_360,Shelter,360,구산초등학교 운동장,옥외대피소,서울특별시,은평구,서울특별시 은평구 갈현로15길 20-23 (구산동),37.609489,126.908965,8588.0,,,
shelter_361,Shelter,361,쌍문초등학교 운동장,옥외대피소,서울특별시,도봉구,서울특별시 도봉구 우이천로 360(쌍문동),37.648693,127.024206,1836.0,,,
shelter_362,Shelter,362,아시아공원,옥외대피소,서울특별시,송파구,서울특별시 송파구 올림픽로 44(잠실동),37.510285,127.077893,65818.0,,,
shelter_363,Shelter,363,창서초등학교 운동장,옥외대피소,서울특별시,서대문구,서울특별시 서대문구 연세로5나길 30-3 (창천동),37.557516,126.934055,2874.0,,,
shelter_364,Shelter,364,경동고등학교 운동장,옥외대피소,서울특별시,성북구,서울특별시 성북구 보문로29길 49(삼선동3가),37.585699,127.014996,10750.0,,,
shelter_365,Shelter,365,경문고등학교운동장,옥외대피소,서울특별시,동작구,서울특별시 동작구 동작대로 171(동작동),37.49175,126.981614,10503.0,,,
shelter_366,Shelter,366,공덕소공원(법원및쉼터),옥외대피소,서울특별시,마포구,서울특별시 마포구 공덕동 475-1,37.548403,126.954557,689.0,,,
shelter_367,Shelter,367,신중초등학교 운동장,옥외대피소,서울특별시,서초구,서울특별시 서초구 남부순환로317길 15(서초동),37.480106,127.009714,15696.0,,,
shelter_368,Shelter,368,동덕여자고등학교 운동장,옥외대피소,서울특별시,서초구,서울특별시 서초구 방배동 산 82,37.476326,126.992721,5015.0,,,
shelter_369,Shelter,369,우암초등학교 운동장,옥외대피소,서울특별시,서초구,서울특별시 서초구 바우뫼로7길 38(우면동),37.471787,127.024738,4881.0,,,
shelter_698,Shelter,698,대청초등학교 운동장,옥외대피소,서울특별시,강남구,서울특별시 강남구 양재대로55길 28(일원동),37.492732,127.08791,4000.0,,,
shelter_699,Shelter,699,중동중학교 운동장,옥외대피소,서울특별시,강남구,서울특별시 강남구 일원로8길 37(일원동),37.488896,127.077793,4641.0,,,
shelter_700,Shelter,700,평창공원,옥외대피소,서울특별시,종로구,서울특별시 종로구 평창동 108-3,37.610551,126.977904,913.0,,,
shelter_701,Shelter,701,성심여자중고등학교 운동장,옥외대피소,서울특별시,용산구,서울특별시 용산구 원효로19길 49(원효로4가),37.533871,126.954562,2006.0,,,
shelter_702,Shelter,702,명주근린공원,옥외대피소,서울특별시,서초구,서울특별시 서초구 잠원동 50-4,37.517175,127.015168,4952.0,,,
shelter_703,Shelter,703,반원어린이공원,옥외대피소,서울특별시,서초구,서울특별시 서초구 신반포로23길 48(잠원동),37.509517,127.003102,3716.0,,,
shelter_704,Shelter,704,개원중학교 운동장,옥외대피소,서울특별시,강남구,서울특별시 강남구 영동대로 101(개포동),37.49129,127.071384,5500.0,,,
shelter_705,Shelter,705,경기여자고등학교 운동장,옥외대피소,서울특별시,강남구,서울특별시 강남구 삼성로 29(개포동),37.486241,127.06592,8292.0,,,
shelter_706,Shelter,706,이태원 어린이공원,옥외대피소,서울특별시,용산구,서울특별시 용산구 회나무로6길 11-8 (이태원동),37.538478,126.989272,2692.0,,,
shelter_707,Shelter,707,배밭근린공원,옥외대피소,서울특별시,강남구,서울특별시 강남구 개포로 409-1 (개포동),37.488843,127.062458,11627.0,,,
shelter_708,Shelter,708,삼성목련공원,옥외대피소,서울특별시,강남구,서울특별시 강남구 삼성동 55-1,37.518573,127.054043,1000.0,,,
shelter_709,Shelter,709,세명근린공원,옥외대피소,서울특별시,강남구,서울특별시 강남구 자곡동 625,37.469021,127.090417,2000.0,,,
shelter_710,Shelter,710,탄천근린공원,옥외대피소,서울특별시,강남구,서울특별시 강남구 수서동 722,37.487601,127.10652,10011.0,,,
shelter_711,Shelter,711,압구정중학교 운동장,옥외대피소,서울특별시,강남구,서울특별시 강남구 압구정로 225(압구정동),37.529748,127.033073,6600.0,,,
shelter_712,Shelter,712,역삼장미공원,옥외대피소,서울특별시,강남구,서울특별시 강남구 역삼동 780-25,37.495307,127.04481,880.0,,,
shelter_713,Shelter,713,사도감어린이공원,옥외대피소,서울특별시,서초구,서울특별시 서초구 서초동 1359-12,37.485717,127.03132,642.0,,,
shelter_714,Shelter,714,서초초등학교 운동장,옥외대피소,서울특별시,서초구,서울특별시 서초구 서운로 178(서초동),37.499145,127.024168,6535.0,,,
shelter_715,Shelter,715,이수초등학교 운동장,옥외대피소,서울특별시,서초구,서울특별시 서초구 방배천로4길 23(방배동),37.478062,126.984582,5666.0,,,
shelter_716,Shelter,716,한강중학교 운동장,옥외대피소,서울특별시,용산구,서울특별시 용산구 녹사평대로 73(서빙고동),37.524248,126.991611,6867.0,,,
shelter_717,Shelter,717,대곡초등학교 운동장,옥외대피소,서울특별시,강남구,서울특별시 강남구 남부순환로 3022(대치동),37.494405,127.065244,4700.0,,,
shelter_718,Shelter,718,은광여자고등학교(은성중) 운동장,옥외대피소,서울특별시,강남구,서울특별시 강남구 남부순환로359길 36(도곡동),37.487276,127.036332,7000.0,,,
shelter_719,Shelter,719,신사은행나무공원,옥외대피소,서울특별시,강남구,서울특별시 강남구 신사동 558,37.520584,127.026036,650.0,,,
shelter_720,Shelter,720,일원초등학교 운동장,옥외대피소,서울특별시,강남구,서울특별시 강남구 영동대로4길 20(일원동),37.489395,127.076421,5400.0,,,
shelter_721,Shelter,721,중산고등학교 운동장,옥외대피소,서울특별시,강남구,서울특별시 강남구 일원로14길 22(일원동),37.48534,127.080595,4873.0,,,
shelter_722,Shelter,722,응봉초등학교 운동장,옥외대피소,서울특별시,성동구,서울특별시 성동구 응봉동 217-4,37.551212,127.034959,3905.0,,,
shelter_723,Shelter,723,원촌초등학교 운동장,옥외대피소,서울특별시,서초구,서울특별시 서초구 사평대로45길 10(반포동),37.505996,127.0141,6816.0,,,
shelter_724,Shelter,724,새말어린이공원,옥외대피소,서울특별시,서초구,서울특별시 서초구 방배동 794-16,37.493331,126.988614,853.0,,,
shelter_725,Shelter,725,서울웹툰애니메이션고등학교 운동장,옥외대피소,서울특별시,서초구,서울특별시 서초구 과천대로 852-23 (방배동),37.46959,126.988537,2360.0,,,
shelter_726,Shelter,726,개포동근린공원,옥외대피소,서울특별시,강남구,서울특별시 강남구 개포로 509(개포동),37.490555,127.069229,9706.0,,,
shelter_727,Shelter,727,응봉근린공원(매봉산공원),옥외대피소,서울특별시,용산구,서울특별시 용산구 한남동 산 8-1,37.54439,127.004871,4141.0,,,
shelter_728,Shelter,728,언북중학교 운동장,옥외대피소,서울특별시,강남구,서울특별시 강남구 도산대로38길 27(논현동),37.51889,127.033293,4000.0,,,
shelter_729,Shelter,729,삼성까치공원,옥외대피소,서울특별시,강남구,서울특별시 강남구 삼성동 85,37.51824,127.06071,630.0,,,
shelter_730,Shelter,730,율현초등학교 운동장,옥외대피소,서울특별시,강남구,서울특별시 강남구 밤고개로21길 15(자곡동),37.474498,127.108709,1900.0,,,
shelter_731,Shelter,731,도담공원,옥외대피소,서울특별시,강남구,서울특별시 강남구 세곡동 548,37.46728,127.098627,1900.0,,,
shelter_732,Shelter,732,역삼은행나무공원,옥외대피소,서울특별시,강남구,서울특별시 강남구 역삼동 611,37.505447,127.031249,700.0,,,
shelter_733,Shelter,733,역삼중학교 운동장,옥외대피소,서울특별시,강남구,서울특별시 강남구 도곡로43길 10(역삼동),37.495589,127.048726,4200.0,,,
shelter_734,Shelter,734,금산초등학교 운동장,옥외대피소,서울특별시,금천구,서울특별시 금천구 시흥대로24길 57(시흥동),37.441878,126.908166,5313.0,,,
shelter_735,Shelter,735,영일고등학교 운동장,옥외대피소,서울특별시,강서구,서울특별시 강서구 등촌로51가길 26(등촌동),37.547922,126.86171,2332.0,,,
shelter_736,Shelter,736,홍연초등학교 운동장,옥외대피소,서울특별시,서대문구,서울특별시 서대문구 백련사길 55(홍은동),37.581559,126.931016,560.0,,,
shelter_737,Shelter,737,방배1동 공영주차장,옥외대피소,서울특별시,서초구,서울특별시 서초구 방배로23길 31-6 (방배동),37.485346,126.992487,631.0,,,
shelter_738,Shelter,738,한남어린이공원,옥외대피소,서울특별시,용산구,서울특별시 용산구 한남동 15-5,37.537241,127.013859,490.0,,,
shelter_739,Shelter,739,세곡중학교 운동장,옥외대피소,서울특별시,강남구,서울특별시 강남구 자곡로 81(자곡동),37.471622,127.092497,2433.0,,,
shelter_740,Shelter,740,세곡천공원,옥외대피소,서울특별시,강남구,서울특별시 강남구 세곡동 522-1,37.463208,127.101284,1200.0,,,
shelter_741,Shelter,741,소나무 어린이 공원,옥외대피소,서울특별시,강서구,서울특별시 강서구 화곡동 29-31,37.547091,126.847839,876.0,,,
shelter_742,Shelter,742,수서중학교 운동장,옥외대피소,서울특별시,강남구,서울특별시 강남구 광평로59길 57(수서동),37.49076,127.102691,2728.0,,,
shelter_743,Shelter,743,압구정고등학교 운동장,옥외대피소,서울특별시,강남구,서울특별시 강남구 압구정로39길 20(압구정동),37.53075,127.032781,5903.0,,,
shelter_744,Shelter,744,광희중학교 운동장,옥외대피소,서울특별시,성동구,서울특별시 성동구 독서당로62길 46(응봉동),37.551478,127.034603,3927.0,,,
shelter_745,Shelter,745,옥정초등학교 운동장,옥외대피소,서울특별시,성동구,서울특별시 성동구 한림말길 43(옥수동),37.541685,127.015792,2006.0,,,
shelter_746,Shelter,746,삼개어린이공원,옥외대피소,서울특별시,마포구,서울특별시 마포구 토정로37길 12(도화동),37.540662,126.945191,2314.0,,,
shelter_747,Shelter,747,서강어린이공원,옥외대피소,서울특별시,영등포구,서울특별시 영등포구 영등포동8가 28,37.525877,126.905887,1811.6,,,
shelter_748,Shelter,748,응봉동둔치 체육공원,옥외대피소,서울특별시,성동구,서울특별시 성동구 응봉동 237-1,37.551712,127.037256,34800.0,,,
shelter_749,Shelter,749,불광어린이공원,옥외대피소,서울특별시,은평구,서울특별시 은평구 불광동 236-5,37.616373,126.931435,570.0,,,
shelter_750,Shelter,750,감나무골공원,옥외대피소,서울특별시,종로구,서울특별시 종로구 평창동 495-4,37.612759,126.970316,2507.0,,,
shelter_751,Shelter,751,역삼초등학교 운동장,옥외대피소,서울특별시,강남구,서울특별시 강남구 강남대로66길 21(역삼동),37.492636,127.032734,2650.0,,,
shelter_752,Shelter,752,사당초등학교 운동장,옥외대피소,서울특별시,관악구,서울특별시 관악구 남현4길 51(남현동),37.474147,126.974396,11638.0,,,
shelter_753,Shelter,753,남서울중학교 운동장,옥외대피소,서울특별시,관악구,서울특별시 관악구 남부순환로172길 97(신림동),37.481857,126.921476,9960.0,,,
shelter_754,Shelter,754,참샘골공원,옥외대피소,서울특별시,종로구,서울특별시 종로구 평창동 470,37.615101,126.974614,2585.0,,,
shelter_755,Shelter,755,원서공원,옥외대피소,서울특별시,종로구,서울특별시 종로구 창덕궁길 19(원서동),37.57828,126.988655,767.0,,,
shelter_756,Shelter,756,군인아파트 어린이공원,옥외대피소,서울특별시,관악구,서울특별시 관악구 남현동 602-143,37.471833,126.978956,817.0,,,
shelter_757,Shelter,757,신림고등학교 운동장,옥외대피소,서울특별시,관악구,서울특별시 관악구 문성로 119(신림동),37.478363,126.917239,6386.0,,,
shelter_758,Shelter,758,난우중학교 운동장,옥외대피소,서울특별시,관악구,서울특별시 관악구 난곡로16길 32(신림동),37.466686,126.922534,2770.0,,,
shelter_759,Shelter,759,신림초등학교 운동장,옥외대피소,서울특별시,관악구,서울특별시 관악구 문성로28길 31(신림동),37.477553,126.927498,4252.0,,,
shelter_760,Shelter,760,꿈돌이 어린이공원,옥외대피소,서울특별시,강서구,서울특별시 강서구 화곡로 234(화곡동),37.545908,126.845362,1549.0,,,
shelter_761,Shelter,761,한광고등학교 운동장,옥외대피소,서울특별시,강서구,서울특별시 강서구 화곡동 488-3,37.538665,126.858176,2652.0,,,
shelter_762,Shelter,762,연신중학교 운동장,옥외대피소,서울특별시,은평구,서울특별시 은평구 연서로33길 16-32 (불광동),37.62318,126.925261,5635.0,,,
shelter_763,Shelter,763,수유일공원(삼각산공원),옥외대피소,서울특별시,강북구,서울특별시 강북구 수유동 605-399,37.630439,127.017267,2459.0,,,
shelter_764,Shelter,764,물빛문화공원,옥외대피소,서울특별시,마포구,서울특별시 마포구 상암동 1608,37.580133,126.893142,3014.0,,,
shelter_765,Shelter,765,서교어린이공원,옥외대피소,서울특별시,마포구,서울특별시 마포구 양화로11길 21(서교동),37.551859,126.915428,1417.0,,,
shelter_766,Shelter,766,토정어린이공원,옥외대피소,서울특별시,마포구,서울특별시 마포구 용강동 508-3,37.540846,126.943462,1965.0,,,
shelter_767,Shelter,767,평화어린이공원,옥외대피소,서울특별시,영등포구,"서울특별시 영등포구 63로 45(여의도동, 여의도시범아파트)",37.521155,126.938256,1036.0,,,
shelter_768,Shelter,768,명덕여자고등학교 운동장,옥외대피소,서울특별시,강서구,서울특별시 강서구 강서로47길 34-10 (내발산동),37.554526,126.834339,6399.0,,,
shelter_769,Shelter,769,공항중학교 운동장,옥외대피소,서울특별시,강서구,서울특별시 강서구 방화대로 241(공항동),37.5625,126.815064,3294.0,,,
shelter_770,Shelter,770,휴암문화공원,옥외대피소,서울특별시,마포구,"서울특별시 마포구 월드컵북로 501(상암동, 상암월드컵파크9단지)",37.583493,126.878715,5137.0,,,
shelter_771,Shelter,771,역말어린이공원,옥외대피소,서울특별시,은평구,서울특별시 은평구 갈현로14길 32(역촌동),37.606813,126.9141,944.0,,,
shelter_772,Shelter,772,당산서중학교 운동장,옥외대피소,서울특별시,영등포구,서울특별시 영등포구 당산로41길 12(당산동5가),37.531952,126.898602,4640.0,,,
shelter_773,Shelter,773,하늘어린이공원,옥외대피소,서울특별시,강북구,서울특별시 강북구 미아동 791-3853,37.624575,127.012984,3268.0,,,
shelter_774,Shelter,774,가재울어린이공원,옥외대피소,서울특별시,서대문구,서울특별시 서대문구 남가좌동 385-2,37.573,126.9194,9125.0,,,
shelter_775,Shelter,775,은가어린이공원,옥외대피소,서울특별시,서대문구,서울특별시 서대문구 북가좌동 3-39,37.582718,126.919469,1312.0,,,
shelter_776,Shelter,776,상암중학교 운동장,옥외대피소,서울특별시,마포구,서울특별시 마포구 상암산로1길 26(상암동),37.578853,126.88795,4474.0,,,
shelter_777,Shelter,777,고덕초등학교 운동장,옥외대피소,서울특별시,강동구,서울특별시 강동구 아리수로82길 42(고덕동),37.560633,127.1666,2500.0,,,
shelter_778,Shelter,778,서갈현공원,옥외대피소,서울특별시,은평구,서울특별시 은평구 갈현로35길 12-8 (갈현동),37.62153,126.915788,1428.0,,,
shelter_779,Shelter,779,당중초등학교 운동장,옥외대피소,서울특별시,영등포구,서울특별시 영등포구 선유로 131(양평동3가),37.525771,126.890218,17024.0,,,
shelter_780,Shelter,780,자운초등학교 운동장,옥외대피소,서울특별시,도봉구,서울특별시 도봉구 마들로13길 166(창동),37.657531,127.046655,8244.0,,,
shelter_781,Shelter,781,문래초등학교 운동장,옥외대피소,서울특별시,영등포구,서울특별시 영등포구 문래로 104(문래동3가),37.518685,126.893332,2288.1,,,
shelter_782,Shelter,782,서울백영고등학교 운동장,옥외대피소,서울특별시,강서구,서울특별시 강서구 방화대로34길 13(마곡동),37.569468,126.817445,1960.0,,,
shelter_783,Shelter,783,묘곡초등학교 운동장,옥외대피소,서울특별시,강동구,서울특별시 강동구 동남로79길 46(고덕동),37.558112,127.153314,15334.0,,,
shelter_784,Shelter,784,서울정곡초등학교 운동장,옥외대피소,서울특별시,강서구,서울특별시 강서구 방화대로50길 22(방화동),37.576434,126.81896,1912.0,,,
shelter_785,Shelter,785,경서중학교 운동장,옥외대피소,서울특별시,강서구,서울특별시 강서구 양천로59길 31(가양동),37.560885,126.858848,2834.0,,,
shelter_786,Shelter,786,서울공진초등학교 운동장,옥외대피소,서울특별시,강서구,서울특별시 강서구 마곡서로 33(마곡동),37.557834,126.8229,2479.0,,,
shelter_787,Shelter,787,강동초등학교 운동장,옥외대피소,서울특별시,강동구,서울특별시 강동구 상암로14길 77(천호동),37.54592,127.12997,7452.0,,,
shelter_788,Shelter,788,성내초등학교 운동장,옥외대피소,서울특별시,강동구,서울특별시 강동구 성내로3길 19(성내동),37.531037,127.122109,3323.0,,,
shelter_789,Shelter,789,길동초등학교 운동장,옥외대피소,서울특별시,강동구,서울특별시 강동구 양재대로116길 69(길동),37.538161,127.144635,4120.0,,,
shelter_790,Shelter,790,선린초등학교 운동장,옥외대피소,서울특별시,강동구,서울특별시 강동구 진황도로61길 29(둔촌동),37.529205,127.145783,4732.0,,,
shelter_791,Shelter,791,세현고등학교 운동장,옥외대피소,서울특별시,강서구,서울특별시 강서구 허준로 227(가양동),37.560023,126.864087,1857.0,,,
shelter_792,Shelter,792,창일중학교 운동장,옥외대피소,서울특별시,도봉구,서울특별시 도봉구 노해로66길 60(창동),37.648433,127.047151,9967.0,,,
shelter_793,Shelter,793,신화초등학교 운동장,옥외대피소,서울특별시,도봉구,서울특별시 도봉구 우이천로 120(창동),37.632296,127.041474,14663.0,,,
shelter_794,Shelter,794,오봉초등학교 운동장,옥외대피소,서울특별시,도봉구,서울특별시 도봉구 시루봉로 285(도봉동),37.671478,127.040463,2834.0,,,
shelter_795,Shelter,795,천호중학교 운동장,옥외대피소,서울특별시,강동구,서울특별시 강동구 상암로 153(천호동),37.546312,127.139965,2990.0,,,
shelter_796,Shelter,796,당곡초등학교 운동장,옥외대피소,서울특별시,관악구,서울특별시 관악구 보라매로2길 23(봉천동),37.490005,126.929984,4610.0,,,
shelter_797,Shelter,797,상문고등학교 운동장,옥외대피소,서울특별시,서초구,서울특별시 서초구 명달로 45(방배동),37.479645,127.004312,30783.0,,,
shelter_798,Shelter,798,서초고등학교 운동장,옥외대피소,서울특별시,서초구,서울특별시 서초구 반포대로27길 29(서초동),37.489261,127.006454,13634.0,,,
shelter_799,Shelter,799,원명초등학교 운동장 ,옥외대피소,서울특별시,서초구,서울특별시 서초구 고무래로 90-6 (서초동),37.500406,127.016865,5223.0,,,
shelter_800,Shelter,800,경원중학교 운동장,옥외대피소,서울특별시,서초구,서울특별시 서초구 신반포로33길 39(잠원동),37.510916,127.009448,6400.0,,,
shelter_801,Shelter,801,서래초등학교 운동장,옥외대피소,서울특별시,서초구,서울특별시 서초구 방배로 260(방배동),37.495959,126.98949,2852.0,,,
shelter_802,Shelter,802,양재초등학교 운동장,옥외대피소,서울특별시,서초구,서울특별시 서초구 바우뫼로18길 14(양재동),37.47382,127.032179,4902.0,,,
shelter_803,Shelter,803,우면초등학교 운동장,옥외대피소,서울특별시,서초구,서울특별시 서초구 태봉로 59(우면동),37.46425,127.023846,2129.0,,,
shelter_804,Shelter,804,난향초등학교 운동장,옥외대피소,서울특별시,관악구,서울특별시 관악구 난향길 9(신림동),37.462207,126.918289,4993.0,,,
shelter_805,Shelter,805,효문고등학교운동장,옥외대피소,서울특별시,도봉구,서울특별시 도봉구 우이천로 432(쌍문동),37.65255,127.01776,183.0,,,
shelter_806,Shelter,806,신우초등학교 운동장,옥외대피소,서울특별시,관악구,서울특별시 관악구 호암로 498(신림동),37.462739,126.932425,5114.0,,,
shelter_807,Shelter,807,숭문중고등학교 운동장,옥외대피소,서울특별시,마포구,서울특별시 마포구 숭문길 99(대흥동),37.551509,126.94579,8782.0,,,
shelter_808,Shelter,808,신명중학교 운동장,옥외대피소,서울특별시,강동구,서울특별시 강동구 명일로24길 33(길동),37.542129,127.149417,2904.0,,,
shelter_809,Shelter,809,동명근린공원 축구장,옥외대피소,서울특별시,강동구,서울특별시 강동구 아리수로78길 23(고덕동),37.561078,127.164903,5000.0,,,
shelter_810,Shelter,810,영원초등학교 운동장,옥외대피소,서울특별시,영등포구,서울특별시 영등포구 도영로22길 31(영등포동),37.510313,126.902314,997.9,,,
shelter_811,Shelter,811,정원여자중학교 운동장,옥외대피소,서울특별시,서대문구,서울특별시 서대문구 연희로37안길 51(홍은동),37.58535,126.933133,813.0,,,
shelter_812,Shelter,812,합정동보호수 정자마당,옥외대피소,서울특별시,마포구,서울특별시 마포구 합정동 450-6,37.5514,126.9035,1176.0,,,
shelter_813,Shelter,813,큰더기어린이공원,옥외대피소,서울특별시,마포구,서울특별시 마포구 공덕동 470-1,37.550493,126.953227,1514.0,,,
shelter_814,Shelter,814,재동초등학교 운동장,옥외대피소,서울특별시,종로구,서울특별시 종로구 북촌로4길 7(가회동),37.579642,126.985613,3357.0,,,
shelter_815,Shelter,815,당산중학교 운동장,옥외대피소,서울특별시,영등포구,서울특별시 영등포구 버드나루로 160(당산동),37.53185,126.907271,5081.2,,,
shelter_816,Shelter,816,인왕초등학교 운동장,옥외대피소,서울특별시,서대문구,서울특별시 서대문구 세무서길 33-9 (홍제동),37.59017,126.94506,3596.0,,,
shelter_817,Shelter,817,용강쉼터,옥외대피소,서울특별시,마포구,서울특별시 마포구 백범로 79(대흥동),37.54864,126.94065,673.0,,,
shelter_818,Shelter,818,은빛초등학교 운동장 ,옥외대피소,서울특별시,은평구,서울특별시 은평구 진관3로 73-17 (진관동),37.642369,126.919214,1512.0,,,
shelter_819,Shelter,819,참다래어린이공원,옥외대피소,서울특별시,은평구,서울특별시 은평구 응암로25길 8(응암동),37.595385,126.917336,860.0,,,
shelter_820,Shelter,820,성원어린이 공원,옥외대피소,서울특별시,성동구,서울특별시 성동구 상원10길 21(성수동1가),37.550213,127.050055,633.0,,,
shelter_821,Shelter,821,덕성여자중학교 운동장,옥외대피소,서울특별시,종로구,서울특별시 종로구 율곡로3길 49(송현동),37.577837,126.982122,2560.0,,,
shelter_822,Shelter,822,삼청공원,옥외대피소,서울특별시,종로구,서울특별시 종로구 삼청동 산 2-1,37.591592,126.982164,378440.0,,,
shelter_823,Shelter,823,용산초등학교 운동장,옥외대피소,서울특별시,용산구,서울특별시 용산구 한강대로57길 5(한강로2가),37.535331,126.972366,1450.0,,,
shelter_824,Shelter,824,문화소공원,옥외대피소,서울특별시,서대문구,서울특별시 서대문구 세검정로4길 11(홍제동),37.594549,126.948815,1456.0,,,
shelter_825,Shelter,825,명덕초등학교 운동장,옥외대피소,서울특별시,강동구,서울특별시 강동구 양재대로156길 11(고덕동),37.556915,127.14544,15369.0,,,
shelter_826,Shelter,826,한영고등학교 운동장,옥외대피소,서울특별시,강동구,서울특별시 강동구 동남로 832(상일동),37.548818,127.157354,5380.0,,,
shelter_827,Shelter,827,강동아트센터(잔디광장),옥외대피소,서울특별시,강동구,서울특별시 강동구 동남로 870(상일동),37.551312,127.157489,2300.0,,,
shelter_828,Shelter,828,경기상업고등학교 운동장,옥외대피소,서울특별시,종로구,서울특별시 종로구 자하문로 136(청운동),37.58815,126.97004,10629.0,,,
shelter_829,Shelter,829,내수1근린공원,옥외대피소,서울특별시,종로구,서울특별시 종로구 내수동 71-2,37.573587,126.970553,2703.0,,,
shelter_830,Shelter,830,용답토속공원,옥외대피소,서울특별시,성동구,서울특별시 성동구 천호대로 336(용답동),37.563215,127.056893,4832.0,,,
shelter_831,Shelter,831,성내중학교 운동장,옥외대피소,서울특별시,강동구,서울특별시 강동구 성안로7길 36(성내동),37.528504,127.129545,5162.0,,,
shelter_832,Shelter,832,신현고등학교운동장,옥외대피소,서울특별시,중랑구,서울특별시 중랑구 봉화산로 174(상봉동),37.604853,127.092563,3705.0,,,
shelter_833,Shelter,833,양남초등학교 운동장,옥외대피소,서울특별시,광진구,서울특별시 광진구 뚝섬로64길 71(자양동),37.530594,127.089678,3580.0,,,
shelter_834,Shelter,834,상일여자고등학교 운동장,옥외대피소,서울특별시,강동구,서울특별시 강동구 천호대로219길 61(상일동),37.549066,127.170177,5400.0,,,
shelter_835,Shelter,835,성신여자중학교 운동장,옥외대피소,서울특별시,성북구,서울특별시 성북구 동소문로26가길 80(돈암동),37.594567,127.023493,4056.0,,,
shelter_836,Shelter,836,용곡초등학교 운동장 ,옥외대피소,서울특별시,광진구,서울특별시 광진구 용마산로22길 82(중곡동),37.566727,127.088576,4432.0,,,
shelter_837,Shelter,837,느티나무어린이공원,옥외대피소,서울특별시,마포구,서울특별시 마포구 연남로3길 80(연남동),37.559662,126.918811,826.0,,,
shelter_838,Shelter,838,안양천 영롱이 억새 1~3구장,옥외대피소,서울특별시,영등포구,서울특별시 영등포구 영등포로2길 34(문래동6가),37.520397,126.880685,46340.6,,,
shelter_839,Shelter,839,매봉소공원,옥외대피소,서울특별시,성동구,서울특별시 성동구 매봉길 49-29 (옥수동),37.545717,127.011123,2516.0,,,
shelter_840,Shelter,840,새꿈어린이공원,옥외대피소,서울특별시,용산구,서울특별시 용산구 동자동 8-5,37.552586,126.974147,1594.0,,,
shelter_841,Shelter,841,정덕초등학교 운동장,옥외대피소,서울특별시,성북구,서울특별시 성북구 아리랑로 63(동소문동7가),37.598062,127.013957,2417.0,,,
shelter_842,Shelter,842,동북중고등학교 운동장,옥외대피소,서울특별시,강동구,서울특별시 강동구 강동대로 305(둔촌동),37.519774,127.140146,8304.0,,,
shelter_843,Shelter,843,돈암초등학교 운동장,옥외대피소,서울특별시,성북구,서울특별시 성북구 동소문로13길 38(동소문동6가),37.593153,127.01335,3406.0,,,
shelter_844,Shelter,844,광양중학교 운동장,옥외대피소,서울특별시,광진구,서울특별시 광진구 자양로3길 7(자양동),37.530258,127.086069,3233.0,,,
shelter_845,Shelter,845,건국대부속중학교 운동장,옥외대피소,서울특별시,광진구,서울특별시 광진구 능동로 120(화양동),37.540651,127.082352,5794.0,,,
shelter_846,Shelter,846,광남중학교 운동장,옥외대피소,서울특별시,광진구,서울특별시 광진구 아차산로70길 17-62 (광장동),37.540172,127.101641,2845.0,,,
shelter_847,Shelter,847,신우어린이공원,옥외대피소,서울특별시,영등포구,서울특별시 영등포구 가마산로47길 13(대림동),37.503317,126.89919,3079.5,,,
shelter_848,Shelter,848,명일초등학교 운동장,옥외대피소,서울특별시,강동구,서울특별시 강동구 고덕로38길 8(암사동),37.554016,127.141971,8204.0,,,
shelter_849,Shelter,849,인헌초등학교 운동장,옥외대피소,서울특별시,관악구,서울특별시 관악구 낙성대로 23(봉천동),37.476371,126.960237,8597.0,,,
shelter_850,Shelter,850,대길초등학교 운동장,옥외대피소,서울특별시,영등포구,서울특별시 영등포구 대방천로 206(신길동),37.49814,126.914414,4266.0,,,
shelter_851,Shelter,851,영림초등학교 운동장,옥외대피소,서울특별시,영등포구,서울특별시 영등포구 시흥대로173길 14(대림동),37.487173,126.902966,2228.0,,,
shelter_852,Shelter,852,신영초등학교 운동장,옥외대피소,서울특별시,영등포구,서울특별시 영등포구 도신로4길 32(대림동),37.500347,126.896097,4727.7,,,
shelter_853,Shelter,853,행당초등학교 운동장,옥외대피소,서울특별시,성동구,서울특별시 성동구 고산자로8길 6(행당동),37.557005,127.034548,3705.0,,,
shelter_854,Shelter,854,신암초등학교 운동장,옥외대피소,서울특별시,강동구,서울특별시 강동구 올림픽로93길 33-16 (암사동),37.54893,127.124163,1880.0,,,
shelter_855,Shelter,855,여의도초등학교 운동장,옥외대피소,서울특별시,영등포구,서울특별시 영등포구 여의대방로 439(여의도동),37.52284,126.93625,4824.0,,,
shelter_856,Shelter,856,매봉초등학교 운동장,옥외대피소,서울특별시,구로구,서울특별시 구로구 고척로21길 55(개봉동),37.504296,126.84475,2529.0,,,
shelter_857,Shelter,857,대명초등학교 운동장,옥외대피소,서울특별시,강동구,서울특별시 강동구 상암로 271(명일동),37.547137,127.15329,5550.0,,,
shelter_858,Shelter,858,성베드로학교 운동장,옥외대피소,서울특별시,구로구,서울특별시 구로구 연동로 320(항동),37.48721,126.825479,3284.0,,,
shelter_859,Shelter,859,염경초등학교운동장,옥외대피소,서울특별시,강서구,서울특별시 강서구 양천로69길 49(염창동),37.55463,126.871395,1566.0,,,
shelter_860,Shelter,860,구로초등학교 운동장,옥외대피소,서울특별시,구로구,서울특별시 구로구 구로중앙로27나길 21(구로동),37.496899,126.886248,3657.0,,,
shelter_861,Shelter,861,대림중학교 운동장,옥외대피소,서울특별시,영등포구,서울특별시 영등포구 시흥대로185길 6(대림동),37.492064,126.907604,10265.0,,,
shelter_862,Shelter,862,무학초등학교 운동장,옥외대피소,서울특별시,성동구,서울특별시 성동구 무학봉15길 21(하왕십리동),37.562729,127.029957,3791.0,,,
shelter_863,Shelter,863,개봉중학교 운동장,옥외대피소,서울특별시,구로구,서울특별시 구로구 고척로21나길 68(개봉동),37.502475,126.842059,3190.0,,,
shelter_864,Shelter,864,영서중학교 운동장,옥외대피소,서울특별시,구로구,서울특별시 구로구 도림로20길 35(구로동),37.488908,126.894375,6415.0,,,
shelter_865,Shelter,865,대영초등학교 운동장,옥외대피소,서울특별시,영등포구,서울특별시 영등포구 신길로23길 43(신길동),37.50234,126.905461,2758.3,,,
shelter_866,Shelter,866,창도초등학교 운동장,옥외대피소,서울특별시,도봉구,서울특별시 도봉구 방학로 32-28 (방학동),37.663726,127.049196,7676.0,,,
shelter_867,Shelter,867,신방학중학교 운동장,옥외대피소,서울특별시,도봉구,서울특별시 도봉구 시루봉로 156(방학동),37.663869,127.029363,676.0,,,
shelter_868,Shelter,868,창동고등학교 운동장,옥외대피소,서울특별시,도봉구,서울특별시 도봉구 노해로62길 7(창동),37.650481,127.038602,183.0,,,
shelter_869,Shelter,869,등명중학교 운동장,옥외대피소,서울특별시,강서구,서울특별시 강서구 공항대로39길 39(등촌동),37.559645,126.843167,4099.0,,,
shelter_870,Shelter,870,등촌고등학교 운동장,옥외대피소,서울특별시,강서구,서울특별시 강서구 공항대로39길 115(등촌동),37.56255,126.844418,3104.0,,,
shelter_871,Shelter,871,천동초등학교 운동장,옥외대피소,서울특별시,강동구,서울특별시 강동구 성안로 200(길동),37.540505,127.13753,1567.0,,,
shelter_872,Shelter,872,마포고등학교 운동장,옥외대피소,서울특별시,강서구,서울특별시 강서구 화곡로 403(등촌동),37.558955,126.852859,6399.0,,,
shelter_873,Shelter,873,노을공원,옥외대피소,서울특별시,강서구,서울특별시 강서구 화곡동 105-194,37.539841,126.843943,999.0,,,
shelter_874,Shelter,874,월정초등학교운동장,옥외대피소,서울특별시,강서구,서울특별시 강서구 월정로 176(화곡동),37.534433,126.836305,3336.0,,,
shelter_875,Shelter,875,백운중학교 운동장,옥외대피소,서울특별시,도봉구,서울특별시 도봉구 도봉로129길 50(쌍문동),37.655844,127.035921,183.0,,,
shelter_876,Shelter,876,은명초등학교 운동장,옥외대피소,서울특별시,은평구,서울특별시 은평구 은평로4길 21-9 (응암동),37.597325,126.918606,1920.0,,,
shelter_877,Shelter,877,동신중학교 운동장,옥외대피소,서울특별시,강동구,서울특별시 강동구 진황도로 72(천호동),37.536465,127.133986,1500.0,,,
shelter_878,Shelter,878,난우초등학교 운동장,옥외대피소,서울특별시,관악구,서울특별시 관악구 난우길 40(신림동),37.476825,126.917753,6345.0,,,
shelter_879,Shelter,879,관악고등학교 운동장,옥외대피소,서울특별시,영등포구,서울특별시 영등포구 영등포로6길 26(양평동2가),37.52134,126.882984,18480.0,,,
shelter_880,Shelter,880,자운고등학교 운동장,옥외대피소,서울특별시,도봉구,서울특별시 도봉구 노해로69길 150(창동),37.658842,127.050271,1466.0,,,
shelter_881,Shelter,881,연광초등학교 운동장,옥외대피소,서울특별시,은평구,서울특별시 은평구 연서로35길 37(불광동),37.62365,126.923861,3390.0,,,
shelter_882,Shelter,882,역촌초등학교 운동장,옥외대피소,서울특별시,은평구,서울특별시 은평구 은평로3길 25(역촌동),37.601629,126.914408,12722.0,,,
shelter_883,Shelter,883,상도초등학교 운동장,옥외대피소,서울특별시,동작구,서울특별시 동작구 성대로21길 62(상도동),37.499492,126.937398,1451.0,,,
shelter_884,Shelter,884,문래중학교 운동장,옥외대피소,서울특별시,영등포구,서울특별시 영등포구 선유서로13길 6(문래동6가),37.520125,126.884215,2257.9,,,
shelter_885,Shelter,885,한성중고등학교 운동장,옥외대피소,서울특별시,서대문구,서울특별시 서대문구 북아현동 170-1,37.560388,126.954548,12625.0,,,
shelter_886,Shelter,886,노량진초등학교 운동장,옥외대피소,서울특별시,동작구,서울특별시 동작구 장승배기로 160(노량진동),37.511295,126.940621,2700.0,,,
shelter_887,Shelter,887,신상도초등학교 운동장,옥외대피소,서울특별시,동작구,서울특별시 동작구 장승배기로 14(상도동),37.499926,126.943785,2595.0,,,
shelter_888,Shelter,888,강현중학교운동장,옥외대피소,서울특별시,동작구,서울특별시 동작구 상도로13라길 22(상도동),37.5031,126.931425,3215.0,,,
shelter_889,Shelter,889,문창중학교 운동장,옥외대피소,서울특별시,동작구,서울특별시 동작구 여의대방로22나길 40(신대방동),37.495749,126.921651,3160.0,,,
shelter_890,Shelter,890,서빙고초등학교 운동장,옥외대피소,서울특별시,용산구,서울특별시 용산구 서빙고로51길 14(서빙고동),37.521266,126.991524,5653.0,,,
shelter_891,Shelter,891,서초중학교 운동장,옥외대피소,서울특별시,서초구,서울특별시 서초구 반포대로13길 48(서초동),37.485204,127.008653,12123.0,,,
shelter_892,Shelter,892,숭신초등학교 운동장,옥외대피소,서울특별시,성동구,서울특별시 성동구 마장로 161(하왕십리동),37.567456,127.027599,434.0,,,
shelter_893,Shelter,893,동명초등학교 운동장,옥외대피소,서울특별시,성동구,서울특별시 성동구 마장로29길 29(마장동),37.568377,127.035728,4256.0,,,
shelter_894,Shelter,894,금양초등학교 운동장,옥외대피소,서울특별시,용산구,서울특별시 용산구 효창원로 137(효창동),37.540353,126.961213,2622.0,,,
shelter_895,Shelter,895,도곡초등학교 운동장,옥외대피소,서울특별시,강남구,서울특별시 강남구 선릉로64길 33(대치동),37.499055,127.054664,5000.0,,,
shelter_896,Shelter,896,세화여자고등학교 운동장,옥외대피소,서울특별시,서초구,서울특별시 서초구 신반포로 56-7 (반포동),37.50166,126.991891,8066.0,,,
shelter_897,Shelter,897,금북초등학교 운동장,옥외대피소,서울특별시,성동구,서울특별시 성동구 행당로1길 13(금호동1가),37.556997,127.023425,1719.0,,,
shelter_898,Shelter,898,상일초등학교 운동장,옥외대피소,서울특별시,강동구,서울특별시 강동구 천호대로 1477(상일동),37.546988,127.172364,2180.0,,,
shelter_899,Shelter,899,고명초등학교 운동장,옥외대피소,서울특별시,강동구,서울특별시 강동구 고덕로46길 53(명일동),37.55265,127.146865,3000.0,,,
shelter_900,Shelter,900,천호초등학교 운동장,옥외대피소,서울특별시,강동구,서울특별시 강동구 구천면로 310-11 (천호동),37.54706,127.136207,1850.0,,,
shelter_901,Shelter,901,이태원초등학교 운동장,옥외대피소,서울특별시,용산구,서울특별시 용산구 이태원동 406,37.5357,126.987901,1408.0,,,
shelter_902,Shelter,902,동신초등학교 운동장,옥외대피소,서울특별시,성북구,서울특별시 성북구 보문동3가 228,37.582852,127.017203,3589.0,,,
shelter_903,Shelter,903,홍은초등학교 운동장,옥외대피소,서울특별시,서대문구,서울특별시 서대문구 세검정로 105(홍제동),37.597229,126.949661,1299.0,,,
shelter_904,Shelter,904,수도여자고등학교 운동장,옥외대피소,서울특별시,동작구,서울특별시 동작구 여의대방로10길 73(신대방동),37.492853,126.915531,2904.0,,,
shelter_905,Shelter,905,북가좌초등학교 운동장,옥외대피소,서울특별시,서대문구,서울특별시 서대문구 거북골로19길 20(북가좌동),37.578108,126.907933,2544.0,,,
shelter_906,Shelter,906,원촌중학교 운동장,옥외대피소,서울특별시,서초구,서울특별시 서초구 사평대로45길 10(반포동),37.506018,127.014264,6544.0,,,
shelter_907,Shelter,907,성산중학교 운동장 ,옥외대피소,서울특별시,마포구,서울특별시 마포구 성지1길 32-13 (합정동),37.547135,126.915787,4898.0,,,
shelter_908,Shelter,908,신구초등학교 운동장,옥외대피소,서울특별시,강남구,서울특별시 강남구 압구정로18길 28(신사동),37.523093,127.024278,5000.0,,,
shelter_909,Shelter,909,언주중학교 운동장,옥외대피소,서울특별시,강남구,서울특별시 강남구 선릉로116길 45(삼성동),37.514277,127.046914,4743.0,,,
shelter_910,Shelter,910,아현녹지쉼터,옥외대피소,서울특별시,마포구,서울특별시 마포구 아현동 704,37.557028,126.962762,6745.0,,,
shelter_911,Shelter,911,세명초등학교 운동장,옥외대피소,서울특별시,강남구,서울특별시 강남구 세곡동 529,37.468732,127.091313,1365.0,,,
shelter_912,Shelter,912,신동중학교 운동장,옥외대피소,서울특별시,서초구,서울특별시 서초구 나루터로 27(잠원동),37.516242,127.013027,11331.0,,,
shelter_913,Shelter,913,남정초등학교 운동장,옥외대피소,서울특별시,용산구,서울특별시 용산구 원효로64길 17-10 (원효로2가),37.535962,126.965065,2767.0,,,
shelter_914,Shelter,914,서울탑산초등학교 운동장,옥외대피소,서울특별시,강서구,서울특별시 강서구 허준로 109(가양동),37.566687,126.852409,2379.0,,,
shelter_915,Shelter,915,화곡보건경영고등학교 운동장,옥외대피소,서울특별시,강서구,서울특별시 강서구 강서로45길 70(내발산동),37.548648,126.832951,3027.0,,,
shelter_916,Shelter,916,잠실초등학교 운동장,옥외대피소,서울특별시,송파구,서울특별시 송파구 올림픽로35길 20(신천동),37.519925,127.111015,1785.0,,,
shelter_917,Shelter,917,가락중학교 운동장,옥외대피소,서울특별시,송파구,서울특별시 송파구 송이로 45(송파동),37.502116,127.118298,6944.0,,,
shelter_918,Shelter,918,서울공항초등학교 운동장,옥외대피소,서울특별시,강서구,서울특별시 강서구 마곡서1로 68(마곡동),37.562915,126.821612,2316.0,,,
shelter_919,Shelter,919,마곡중학교 운동장,옥외대피소,서울특별시,강서구,서울특별시 강서구 마곡중앙5로 58(마곡동),37.567788,126.821403,2310.0,,,
shelter_920,Shelter,920,한서고등학교 운동장,옥외대피소,서울특별시,강서구,서울특별시 강서구 양천로11길 47(방화동),37.574426,126.808421,2551.0,,,
shelter_921,Shelter,921,마곡나루근린공원,옥외대피소,서울특별시,강서구,서울특별시 강서구 마곡동 743-3,37.566372,126.821966,11447.0,,,
shelter_922,Shelter,922,서울방화초등학교 운동장,옥외대피소,서울특별시,강서구,서울특별시 강서구 양천로6길 92(방화동),37.568496,126.806964,2145.0,,,
shelter_923,Shelter,923,송전초등학교 운동장,옥외대피소,서울특별시,송파구,서울특별시 송파구 석촌호수로 159(잠실동),37.50837,127.094555,2260.0,,,
shelter_924,Shelter,924,보성고등학교 운동장,옥외대피소,서울특별시,송파구,서울특별시 송파구 양재대로 1278(방이동),37.51962,127.134001,8119.0,,,
shelter_925,Shelter,925,강서공업고등학교 운동장,옥외대피소,서울특별시,강서구,서울특별시 강서구 방화대로47길 9(방화동),37.575454,126.81566,1748.0,,,
shelter_926,Shelter,926,신가초등학교 운동장,옥외대피소,서울특별시,송파구,서울특별시 송파구 송이로 75(가락동),37.499996,127.120055,5768.0,,,
shelter_603,Shelter,603,학여울근린공원,옥외대피소,서울특별시,강남구,서울특별시 강남구 개포로 509(개포동),37.490349,127.068806,12506.0,,,
shelter_604,Shelter,604,구룡초등학교 운동장,옥외대피소,서울특별시,강남구,서울특별시 강남구 개포로 263(개포동),37.480721,127.051967,5400.0,,,
shelter_605,Shelter,605,논현소나무공원,옥외대피소,서울특별시,강남구,서울특별시 강남구 논현동 239,37.515707,127.037476,800.0,,,
shelter_606,Shelter,606,대청중학교 운동장,옥외대피소,서울특별시,강남구,서울특별시 강남구 양재천로 321(대치동),37.489978,127.058616,4300.0,,,
shelter_607,Shelter,607,중대부속고등학교 운동장,옥외대피소,서울특별시,강남구,서울특별시 강남구 선릉로 207(도곡동),37.492405,127.051985,9107.0,,,
shelter_608,Shelter,608,독골근린공원,옥외대피소,서울특별시,강남구,서울특별시 강남구 남부순환로378길 29(도곡동),37.485109,127.046973,2000.0,,,
shelter_609,Shelter,609,도곡목련공원,옥외대피소,서울특별시,강남구,서울특별시 강남구 도곡동 415-3,37.484962,127.044313,400.0,,,
shelter_610,Shelter,610,은천초등학교 운동장,옥외대피소,서울특별시,관악구,서울특별시 관악구 은천로 69(봉천동),37.48673,126.942929,2967.0,,,
shelter_611,Shelter,611,용답초등학교 운동장,옥외대피소,서울특별시,성동구,서울특별시 성동구 천호대로78길 54(용답동),37.560326,127.054158,6034.0,,,
shelter_612,Shelter,612,명달근린공원,옥외대피소,서울특별시,서초구,서울특별시 서초구 서운로23길 17(서초동),37.498515,127.021073,3355.0,,,
shelter_613,Shelter,613,용강중학교 운동장,옥외대피소,서울특별시,용산구,서울특별시 용산구 이촌로65가길 91(이촌동),37.520845,126.976522,3633.0,,,
shelter_614,Shelter,614,개일초등학교 운동장,옥외대피소,서울특별시,강남구,서울특별시 강남구 개포로 401(개포동),37.485711,127.058039,4800.0,,,
shelter_615,Shelter,615,소월길 어린이공원,옥외대피소,서울특별시,용산구,서울특별시 용산구 이태원동 511,37.543543,126.989301,570.0,,,
shelter_616,Shelter,616,한남초등학교 운동장,옥외대피소,서울특별시,용산구,서울특별시 용산구 한남대로 112(한남동),37.539073,127.004929,9810.0,,,
shelter_617,Shelter,617,경기고등학교 운동장,옥외대피소,서울특별시,강남구,서울특별시 강남구 영동대로 643(삼성동),37.51746,127.057064,13000.0,,,
shelter_618,Shelter,618,샘터근린공원,옥외대피소,서울특별시,강남구,서울특별시 강남구 삼성동 16-4,37.515366,127.047407,550.0,,,
shelter_619,Shelter,619,못골아래근린공원,옥외대피소,서울특별시,강남구,서울특별시 강남구 자곡동 607,37.472904,127.09767,7500.0,,,
shelter_620,Shelter,620,행복공원,옥외대피소,서울특별시,강남구,서울특별시 강남구 세곡동 546,37.467268,127.097122,1200.0,,,
shelter_621,Shelter,621,왕북초등학교 운동장,옥외대피소,서울특별시,강남구,서울특별시 강남구 광평로31길 74(수서동),37.486065,127.086721,3074.0,,,
shelter_622,Shelter,622,신사중학교 운동장,옥외대피소,서울특별시,강남구,서울특별시 강남구 압구정로 123(압구정동),37.524249,127.021293,7980.0,,,
shelter_623,Shelter,623,갈매기근린공원,옥외대피소,서울특별시,강남구,서울특별시 강남구 압구정동 480,37.531868,127.034632,3600.0,,,
shelter_624,Shelter,624,역삼소나무공원,옥외대피소,서울특별시,강남구,서울특별시 강남구 역삼동 836-21,37.490979,127.033699,450.0,,,
shelter_625,Shelter,625,충현공원,옥외대피소,서울특별시,강남구,서울특별시 강남구 역삼동 666-2,37.504759,127.036509,800.0,,,
shelter_626,Shelter,626,까치산근린공원,옥외대피소,서울특별시,관악구,서울특별시 관악구 봉천동 산 66-1,37.477808,126.967004,1294.0,,,
shelter_627,Shelter,627,남강고등학교 운동장,옥외대피소,서울특별시,관악구,서울특별시 관악구 난곡로34길 80(신림동),37.472333,126.925127,18963.0,,,
shelter_628,Shelter,628,호박골어린이공원,옥외대피소,서울특별시,관악구,서울특별시 관악구 신림동 1580-22,37.481993,126.923965,422.0,,,
shelter_629,Shelter,629,성수초등학교 운동장,옥외대피소,서울특별시,성동구,서울특별시 성동구 아차산로17길 21(성수동2가),37.54407,127.06388,1560.0,,,
shelter_630,Shelter,630,대청근린공원,옥외대피소,서울특별시,강남구,서울특별시 강남구 개포로124길 24(일원동),37.492652,127.082539,2200.0,,,
shelter_631,Shelter,631,영동고등학교 운동장,옥외대피소,서울특별시,강남구,서울특별시 강남구 선릉로 742(청담동),37.52044,127.041983,12272.0,,,
shelter_632,Shelter,632,청수근린공원,옥외대피소,서울특별시,강남구,서울특별시 강남구 청담동 134-13,37.523298,127.058419,2200.0,,,
shelter_633,Shelter,633,청담은행나무공원,옥외대피소,서울특별시,강남구,서울특별시 강남구 도산대로67길 15(청담동),37.525139,127.044038,650.0,,,
shelter_634,Shelter,634,미도어린이공원,옥외대피소,서울특별시,관악구,서울특별시 관악구 신림동 675-200,37.462839,126.915296,1025.0,,,
shelter_635,Shelter,635,싸리재공원,옥외대피소,서울특별시,서초구,서울특별시 서초구 잠원동 30-10,37.513346,127.018227,991.0,,,
shelter_636,Shelter,636,언남고등학교 운동장,옥외대피소,서울특별시,서초구,서울특별시 서초구 동산로13길 35(양재동),37.473046,127.043369,6087.0,,,
shelter_637,Shelter,637,늘푸른근린공원,옥외대피소,서울특별시,강남구,서울특별시 강남구 일원동 690,37.489927,127.077512,1500.0,,,
shelter_638,Shelter,638,봉은초등학교 운동장,옥외대피소,서울특별시,강남구,서울특별시 강남구 학동로 610(삼성동),37.520632,127.060553,2928.0,,,
shelter_639,Shelter,639,보라매공원,옥외대피소,서울특별시,동작구,서울특별시 동작구 신대방동 395,37.492514,126.920052,80595.0,,,
shelter_640,Shelter,640,대방공원,옥외대피소,서울특별시,동작구,서울특별시 동작구 대방동 23-176,37.507173,126.927186,10656.0,,,
shelter_641,Shelter,641,자양고등학교 운동장,옥외대피소,서울특별시,광진구,서울특별시 광진구 뚝섬로37길 28(자양동),37.535233,127.072672,4183.0,,,
shelter_642,Shelter,642,신자초등학교 운동장,옥외대피소,서울특별시,광진구,서울특별시 광진구 뚝섬로46길 64(자양동),37.52999,127.075452,2261.0,,,
shelter_643,Shelter,643,관악초등학교 운동장,옥외대피소,서울특별시,관악구,서울특별시 관악구 청룡4길 49(봉천동),37.480673,126.943615,3124.0,,,
shelter_644,Shelter,644,쑥고개어린이공원,옥외대피소,서울특별시,관악구,서울특별시 관악구 신림동 1564-68,37.475861,126.940801,1049.0,,,
shelter_645,Shelter,645,광신고등학교 운동장,옥외대피소,서울특별시,관악구,서울특별시 관악구 광신길 141(신림동),37.464621,126.926009,17577.0,,,
shelter_646,Shelter,646,두레근린공원,옥외대피소,서울특별시,강동구,서울특별시 강동구 고덕동 497,37.557975,127.152234,13549.0,,,
shelter_647,Shelter,647,왕십리광장,옥외대피소,서울특별시,성동구,서울특별시 성동구 행당동 192-3,37.561572,127.037222,10067.0,,,
shelter_648,Shelter,648,무학중학교 운동장,옥외대피소,서울특별시,성동구,서울특별시 성동구 행당로 120(행당동),37.557362,127.032235,1800.0,,,
shelter_649,Shelter,649,우솔초등학교 운동장,옥외대피소,서울특별시,서초구,서울특별시 서초구 양재대로2길 74(우면동),37.456834,127.019437,1461.0,,,
shelter_650,Shelter,650,언남중학교 운동장,옥외대피소,서울특별시,서초구,서울특별시 서초구 동산로 55(양재동),37.47209,127.044262,3838.0,,,
shelter_651,Shelter,651,세명컴퓨터고등학교 운동장,옥외대피소,서울특별시,은평구,서울특별시 은평구 통일로92가길 33(불광동),37.627514,126.923422,2260.0,,,
shelter_652,Shelter,652,당골어린이공원,옥외대피소,서울특별시,서초구,서울특별시 서초구 효령로68길 49-3 (서초동),37.485591,127.022663,591.0,,,
shelter_653,Shelter,653,서운중학교 운동장,옥외대피소,서울특별시,서초구,서울특별시 서초구 서운로 115(서초동),37.493607,127.024789,13613.0,,,
shelter_654,Shelter,654,중경고등학교 운동장,옥외대피소,서울특별시,용산구,서울특별시 용산구 이촌로84길 34(이촌동),37.517398,126.975529,4518.0,,,
shelter_655,Shelter,655,풍문고등학교 운동장,옥외대피소,서울특별시,강남구,서울특별시 강남구 자곡로 152(자곡동),37.471643,127.100907,2392.0,,,
shelter_656,Shelter,656,못골공원,옥외대피소,서울특별시,강남구,서울특별시 강남구 자곡동 447-23,37.473622,127.100075,300.0,,,
shelter_657,Shelter,657,대왕공원,옥외대피소,서울특별시,강남구,서울특별시 강남구 헌릉로590길 33(세곡동),37.46237,127.104593,1000.0,,,
shelter_658,Shelter,658,신사근린공원,옥외대피소,서울특별시,강남구,서울특별시 강남구 압구정동 422,37.526444,127.021059,3000.0,,,
shelter_659,Shelter,659,반포종합운동장,옥외대피소,서울특별시,서초구,서울특별시 서초구 신반포로16길 30(반포동),37.500578,126.994297,77499.0,,,
shelter_660,Shelter,660,뒷벌공원,옥외대피소,서울특별시,서초구,서울특별시 서초구 방배중앙로 121(방배동),37.490462,126.986854,4878.0,,,
shelter_661,Shelter,661,원효초등학교 운동장,옥외대피소,서울특별시,용산구,서울특별시 용산구 효창원로13길 38(산천동),37.536039,126.951933,1445.0,,,
shelter_662,Shelter,662,양전초등학교 운동장,옥외대피소,서울특별시,강남구,서울특별시 강남구 개포로 513(개포동),37.490426,127.070413,3500.0,,,
shelter_663,Shelter,663,논현개나리공원,옥외대피소,서울특별시,강남구,서울특별시 강남구 논현로123길 19(논현동),37.511333,127.029949,551.0,,,
shelter_664,Shelter,664,해찬솔근린공원,옥외대피소,서울특별시,강남구,서울특별시 강남구 자곡동 627,37.470872,127.092624,1700.0,,,
shelter_665,Shelter,665,일원까치공원,옥외대피소,서울특별시,강남구,서울특별시 강남구 양재대로55길 14-1 (일원동),37.492065,127.088213,500.0,,,
shelter_666,Shelter,666,성동초등학교 운동장,옥외대피소,서울특별시,광진구,서울특별시 광진구 자양로4길 63(자양동),37.532805,127.089626,2779.0,,,
shelter_667,Shelter,667,쌍룡산어린이공원,옥외대피소,서울특별시,마포구,서울특별시 마포구 아현동 768,37.553007,126.950476,647.0,,,
shelter_668,Shelter,668,공덕역어린이공원,옥외대피소,서울특별시,마포구,서울특별시 마포구 공덕동 467-1,37.545127,126.951293,2435.0,,,
shelter_669,Shelter,669,이대녹지쉼터,옥외대피소,서울특별시,마포구,서울특별시 마포구 대흥동 2-1,37.556536,126.946199,767.0,,,
shelter_670,Shelter,670,경남아너스빌쉼터,옥외대피소,서울특별시,마포구,서울특별시 마포구 신수동 456-1,37.548816,126.933657,624.0,,,
shelter_671,Shelter,671,양화어린이공원,옥외대피소,서울특별시,마포구,서울특별시 마포구 월드컵로5길 79(합정동),37.550458,126.90854,450.0,,,
shelter_672,Shelter,672,서래공원,옥외대피소,서울특별시,서초구,서울특별시 서초구 반포동 63-6,37.501338,127.003055,4512.0,,,
shelter_673,Shelter,673,효창운동장,옥외대피소,서울특별시,용산구,서울특별시 용산구 효창원로 177-15 (효창동),37.543393,126.961409,11722.0,,,
shelter_674,Shelter,674,용산철도고등학교 운동장,옥외대피소,서울특별시,용산구,서울특별시 용산구 서빙고로 24(한강로3가),37.524244,126.966548,4999.0,,,
shelter_675,Shelter,675,라틴아메리카공원,옥외대피소,서울특별시,용산구,서울특별시 용산구 이태원동 258-467,37.540799,126.997139,635.0,,,
shelter_676,Shelter,676,독서당어린이공원,옥외대피소,서울특별시,용산구,서울특별시 용산구 한남동 1-32,37.534492,127.012463,702.0,,,
shelter_677,Shelter,677,윗반고개공원,옥외대피소,서울특별시,강남구,서울특별시 강남구 세곡동 99-6,37.465691,127.109183,500.0,,,
shelter_678,Shelter,678,가온문화공원,옥외대피소,서울특별시,마포구,서울특별시 마포구 상암동 1594,37.581853,126.887621,3532.0,,,
shelter_679,Shelter,679,DMC문화공원,옥외대피소,서울특별시,마포구,서울특별시 마포구 상암동 1611,37.57801,126.892342,3356.0,,,
shelter_680,Shelter,680,윗잔다리 어린이공원,옥외대피소,서울특별시,마포구,서울특별시 마포구 양화로18안길 21(동교동),37.557213,126.926245,2935.0,,,
shelter_681,Shelter,681,한마음(어린이)공원,옥외대피소,서울특별시,마포구,서울특별시 마포구 월드컵로15길 53(망원동),37.554549,126.908043,724.0,,,
shelter_682,Shelter,682,옹달샘(어린이)공원,옥외대피소,서울특별시,마포구,서울특별시 마포구 망원로4길 38(망원동),37.554885,126.902056,1088.0,,,
shelter_683,Shelter,683,자유어린이공원(시범아파트),옥외대피소,서울특별시,영등포구,"서울특별시 영등포구 63로 45(여의도동, 여의도시범아파트)",37.520457,126.936258,552.0,,,
shelter_684,Shelter,684,원지어린이공원,옥외대피소,서울특별시,영등포구,서울특별시 영등포구 도림로47길 28(대림동),37.498095,126.899621,4819.9,,,
shelter_685,Shelter,685,도림동 유수지 ,옥외대피소,서울특별시,영등포구,서울특별시 영등포구 대방천로 29-18 (도림동),37.506892,126.897207,11438.9,,,
shelter_686,Shelter,686,양남어린이공원,옥외대피소,서울특별시,영등포구,서울특별시 영등포구 선유로23길 18(양평동1가),37.523344,126.888217,900.0,,,
shelter_687,Shelter,687,무악어린이공원,옥외대피소,서울특별시,종로구,서울특별시 종로구 무악동 산 2-83,37.577539,126.960621,4953.0,,,
shelter_688,Shelter,688,후암초등학교 운동장,옥외대피소,서울특별시,용산구,서울특별시 용산구 두텁바위로 140(후암동),37.551276,126.982276,2350.0,,,
shelter_689,Shelter,689,선린인터넷고등학교 운동장,옥외대피소,서울특별시,용산구,서울특별시 용산구 원효로97길 33-4 (청파동3가),37.542297,126.966903,5670.0,,,
shelter_690,Shelter,690,일원느티나무공원,옥외대피소,서울특별시,강남구,서울특별시 강남구 일원동 730-2,37.48309,127.077497,400.0,,,
shelter_691,Shelter,691,세검정초등학교 운동장,옥외대피소,서울특별시,종로구,서울특별시 종로구 세검정로9길 1(신영동),37.60279,126.960903,1735.0,,,
shelter_692,Shelter,692,서원초등학교 운동장,옥외대피소,서울특별시,서초구,서울특별시 서초구 고무래로 63(반포동),37.502523,127.015144,5800.0,,,
shelter_693,Shelter,693,본마을공원,옥외대피소,서울특별시,서초구,서울특별시 서초구 신원동 445,37.454553,127.053187,930.0,,,
shelter_694,Shelter,694,수도전기공업고등학교 운동장,옥외대피소,서울특별시,강남구,서울특별시 강남구 개포로 410(개포동),37.486845,127.063674,20800.0,,,
shelter_695,Shelter,695,늘벗근린공원,옥외대피소,서울특별시,강남구,서울특별시 강남구 선릉로 118(대치동),37.489549,127.057214,7000.0,,,
shelter_696,Shelter,696,도곡중학교 운동장,옥외대피소,서울특별시,강남구,서울특별시 강남구 언주로57길 31(도곡동),37.492686,127.044982,3200.0,,,
shelter_697,Shelter,697,윗방죽마을공원,옥외대피소,서울특별시,강남구,서울특별시 강남구 율현동 308-29,37.470318,127.10464,200.0,,,
shelter_1065,Shelter,1065,새록어린이공원,옥외대피소,서울특별시,은평구,서울특별시 은평구 은평로13길 35(녹번동),37.603986,126.923684,958.0,,,
shelter_1066,Shelter,1066,연신초등학교 운동장,옥외대피소,서울특별시,은평구,서울특별시 은평구 연서로 347(불광동),37.626271,126.928406,3926.0,,,
shelter_1067,Shelter,1067,새동네어린이공원,옥외대피소,서울특별시,도봉구,서울특별시 도봉구 도봉동 289-5,37.688944,127.043178,100.0,,,
shelter_1068,Shelter,1068,소망어린이공원,옥외대피소,서울특별시,도봉구,서울특별시 도봉구 방학동 694-9,37.663516,127.036934,100.0,,,
shelter_1069,Shelter,1069,영화초등학교 운동장,옥외대피소,서울특별시,동작구,서울특별시 동작구 등용로8길 3(대방동),37.509475,126.932975,2408.0,,,
shelter_1070,Shelter,1070,백합공원,옥외대피소,서울특별시,강서구,서울특별시 강서구 염창동 267-24,37.551182,126.869375,852.0,,,
shelter_1071,Shelter,1071,신내초등학교운동장,옥외대피소,서울특별시,중랑구,서울특별시 중랑구 용마산로125나길 22(신내동),37.604141,127.100025,3889.0,,,
shelter_1072,Shelter,1072,가재울초등학교 운동장,옥외대피소,서울특별시,서대문구,서울특별시 서대문구 모래내로15길 61(남가좌동),37.5737,126.9186,2215.0,,,
shelter_1073,Shelter,1073,서연중학교 운동장,옥외대피소,서울특별시,서대문구,서울특별시 서대문구 연희로11마길 9-6 (연희동),37.568248,126.927817,1581.0,,,
shelter_1074,Shelter,1074,연북중학교 운동장,옥외대피소,서울특별시,서대문구,서울특별시 서대문구 연희로36길 32(연희동),37.577628,126.937536,6087.0,,,
shelter_1075,Shelter,1075,나비울어린이공원,옥외대피소,서울특별시,서대문구,서울특별시 서대문구 북가좌동 475,37.5748,126.9097,6653.0,,,
shelter_1076,Shelter,1076,정수초등학교 운동장,옥외대피소,서울특별시,성북구,서울특별시 성북구 정릉로24길 58(정릉동),37.604291,127.008196,4865.0,,,
shelter_1077,Shelter,1077,장위중학교 운동장,옥외대피소,서울특별시,성북구,서울특별시 성북구 장위로4길 70(장위동),37.611661,127.040972,2911.0,,,
shelter_1078,Shelter,1078,무궁화어린이공원,옥외대피소,서울특별시,도봉구,서울특별시 도봉구 방학동 655-31,37.66782,127.042163,1003.0,,,
shelter_1079,Shelter,1079,명륜공원,옥외대피소,서울특별시,종로구,서울특별시 종로구 혜화로9길 24-9 (명륜1가),37.588089,126.99812,1025.0,,,
shelter_1080,Shelter,1080,서울사대부설여자중학교 운동장,옥외대피소,서울특별시,종로구,서울특별시 종로구 대학로 64(이화동),37.577487,127.00345,4476.0,,,
shelter_1081,Shelter,1081,숭곡초등학교 운동장,옥외대피소,서울특별시,성북구,서울특별시 성북구 종암로40길 30(하월곡동),37.608422,127.032351,4106.0,,,
shelter_1082,Shelter,1082,해태어린이공원,옥외대피소,서울특별시,도봉구,서울특별시 도봉구 도봉동 614-37,37.672008,127.04119,973.0,,,
shelter_1083,Shelter,1083,신창어린이공원,옥외대피소,서울특별시,도봉구,서울특별시 도봉구 창동 449-103,37.64006,127.040833,579.0,,,
shelter_1084,Shelter,1084,한서초등학교 운동장,옥외대피소,서울특별시,마포구,서울특별시 마포구 대흥로24바길 27(염리동),37.55331,126.949165,1821.0,,,
shelter_1085,Shelter,1085,광성고등학교 운동장,옥외대피소,서울특별시,마포구,서울특별시 마포구 신수로8길 20(신수동),37.548488,126.936424,2880.0,,,
shelter_1086,Shelter,1086,서강초등학교 운동장 ,옥외대피소,서울특별시,마포구,서울특별시 마포구 독막로 113(상수동),37.548147,126.926804,2892.0,,,
shelter_1087,Shelter,1087,서강나루공원,옥외대피소,서울특별시,마포구,서울특별시 마포구 창전동 165-5,37.545326,126.931009,2489.0,,,
shelter_1088,Shelter,1088,성산초등학교 운동장,옥외대피소,서울특별시,마포구,서울특별시 마포구 양화로3길 94(합정동),37.552943,126.911137,1811.0,,,
shelter_1089,Shelter,1089,성미산공원(성산근린공원),옥외대피소,서울특별시,마포구,서울특별시 마포구 성산동 산 11-61,37.561274,126.914915,642.0,,,
shelter_1090,Shelter,1090,외주목어린이공원,옥외대피소,서울특별시,마포구,서울특별시 마포구 성산로4길 42(성산동),37.562805,126.907706,400.0,,,
shelter_1091,Shelter,1091,다솜어린이공원,옥외대피소,서울특별시,마포구,서울특별시 마포구 월드컵북로12길 27(성산동),37.562502,126.915379,652.0,,,
shelter_1092,Shelter,1092,큰길어린이공원,옥외대피소,서울특별시,마포구,서울특별시 마포구 월드컵북로 183(성산동),37.567718,126.908181,672.0,,,
shelter_1093,Shelter,1093,중동초등학교 운동장,옥외대피소,서울특별시,마포구,서울특별시 마포구 월드컵북로 152(성산동),37.566609,126.911333,4584.0,,,
